{"schedule":{"arrivals":[{"through_the_stations":"Białystok, Dworzec Autobusowy → Warsaw Centrum","datetime":{"timestamp":1624526580,"tz":"GMT+02:00"},"line_direction":"Route ŻakExpress (K318) direction Warszawa, Lotnisko Chopina","route":[{"id":33081,"uuid":"e383decd-d064-423a-ab3b-600e6023edde","name":"Białystok, Dworzec Autobusowy","default_address":{"address":"ul. Bohaterów Monte Cassino 8","full_address":"ul. Bohaterów Monte Cassino 8, 15-873 Bialystok, Poland","coordinates":{"latitude":53.132833,"longitude":23.135389}},"address":"ul. Bohaterów Monte Cassino 8","full_address":"ul. Bohaterów Monte Cassino 8, 15-873 Bialystok, Poland","coordinates":{"latitude":53.132833,"longitude":23.135389}},{"id":10768,"uuid":"dcc4c5ea-9603-11e6-9066-549f350fcb0c","name":"Warsaw Centrum","default_address":{"address":"ul. Marszałkowska 104/122","full_address":"ul. Marszałkowska 104/122, 00-017 Warszawa, Poland","coordinates":{"latitude":52.231858,"longitude":21.010823}},"address":"ul. Marszałkowska 104/122","full_address":"ul. Marszałkowska 104/122, 00-017 Warszawa, Poland","coordinates":{"latitude":52.231858,"longitude":21.010823}}],"ride_id":139819321,"trip_uid":"direct:139819321:33081:10768","has_tracker":false,"is_cancelled":false,"line_code":"ŻakExpress (K318)","direction":"Warszawa, Lotnisko Chopina"},{"through_the_stations":"Suwałki, Dworzec Autobusowy → Augustów, ul.29 Listopada, Dom Nauczyciela/Fregata → Augustów, Wojska Polskiego, Orlen/Kaufland → Ełk → Grajewo → Łomża, Dworzec Autobusowy → Warsaw Centrum","datetime":{"timestamp":1624529460,"tz":"GMT+02:00"},"line_direction":"Route ŻakExpress (K321) direction Warszawa, Lotnisko Chopina","route":[{"id":33011,"uuid":"3fe75e60-5d24-41d8-a369-9c5fe544feee","name":"Suwałki, Dworzec Autobusowy","default_address":{"address":"ul. Utrata 1b","full_address":"ul. Utrata 1b, 16-402 Suwalki, Poland","coordinates":{"latitude":54.105204125114,"longitude":22.938839300152}},"address":"ul. Utrata 1b","full_address":"ul. Utrata 1b, 16-402 Suwalki, Poland","coordinates":{"latitude":54.105204125114,"longitude":22.938839300152}},{"id":33031,"uuid":"d7d2a0fc-af68-4591-84c1-7d7bf5871f8e","name":"Augustów, ul.29 Listopada, Dom Nauczyciela/Fregata","default_address":{"address":"ul. 29 Listopada 4","full_address":"ul. 29 Listopada 4, 16-300 Augustów, Poland","coordinates":{"latitude":53.844741911206,"longitude":22.996572824111}},"address":"ul. 29 Listopada 4","full_address":"ul. 29 Listopada 4, 16-300 Augustów, Poland","coordinates":{"latitude":53.844741911206,"longitude":22.996572824111}},{"id":33021,"uuid":"c3f20e88-0583-4a4e-a4b2-8e845ef72212","name":"Augustów, Wojska Polskiego, Orlen/Kaufland","default_address":{"address":"Wojska Polskiego 53, 16-300 Augustów","full_address":"Wojska Polskiego 53, 16-300 Augustów, 16-300 Augustów, Poland","coordinates":{"latitude":53.837979168634,"longitude":22.973082721635}},"address":"Wojska Polskiego 53, 16-300 Augustów","full_address":"Wojska Polskiego 53, 16-300 Augustów, 16-300 Augustów, Poland","coordinates":{"latitude":53.837979168634,"longitude":22.973082721635}},{"id":32981,"uuid":"a5f33a0a-2ff9-4907-9f2a-6e6ae238717c","name":"Ełk","default_address":{"address":"Jarosława Dąbrowskiego","full_address":"Jarosława Dąbrowskiego, 19-311 Elk, Poland","coordinates":{"latitude":53.825298116801,"longitude":22.360769212246}},"address":"Jarosława Dąbrowskiego","full_address":"Jarosława Dąbrowskiego, 19-311 Elk, Poland","coordinates":{"latitude":53.825298116801,"longitude":22.360769212246}},{"id":32991,"uuid":"5308861f-42d2-41b0-9f68-9cb76040638e","name":"Grajewo","default_address":{"address":"ul. Popiełuszki","full_address":"ul. Popiełuszki, 19-200 Grajewo, Poland","coordinates":{"latitude":53.646410441882,"longitude":22.452288416133}},"address":"ul. Popiełuszki","full_address":"ul. Popiełuszki, 19-200 Grajewo, Poland","coordinates":{"latitude":53.646410441882,"longitude":22.452288416133}},{"id":33001,"uuid":"1d8d0969-292a-490d-8a5c-9061a22619aa","name":"Łomża, Dworzec Autobusowy","default_address":{"address":"ul. Dworcowa 4","full_address":"ul. Dworcowa 4, 18-400 Łomża, Poland","coordinates":{"latitude":53.172725184419,"longitude":22.06705665096}},"address":"ul. Dworcowa 4","full_address":"ul. Dworcowa 4, 18-400 Łomża, Poland","coordinates":{"latitude":53.172725184419,"longitude":22.06705665096}},{"id":10768,"uuid":"dcc4c5ea-9603-11e6-9066-549f350fcb0c","name":"Warsaw Centrum","default_address":{"address":"ul. Marszałkowska 104/122","full_address":"ul. Marszałkowska 104/122, 00-017 Warszawa, Poland","coordinates":{"latitude":52.231858,"longitude":21.010823}},"address":"ul. Marszałkowska 104/122","full_address":"ul. Marszałkowska 104/122, 00-017 Warszawa, Poland","coordinates":{"latitude":52.231858,"longitude":21.010823}}],"ride_id":139825011,"trip_uid":"direct:139825011:33011:10768","has_tracker":false,"is_cancelled":false,"line_code":"ŻakExpress (K321)","direction":"Warszawa, Lotnisko Chopina"},{"through_the_stations":"Warszawa, Lotnisko Chopina → Warsaw West → Warsaw Centrum","datetime":{"timestamp":1624533000,"tz":"GMT+02:00"},"line_direction":"Route ŻakExpress (K321) direction Suwałki, Dworzec Autobusowy","route":[{"id":9438,"uuid":"dcc3e708-9603-11e6-9066-549f350fcb0c","name":"Warszawa, Lotnisko Chopina","default_address":{"address":"ul. Żwirki i Wigury 1","full_address":"ul. Żwirki i Wigury 1, 00-906 Warszawa, Poland","coordinates":{"latitude":52.1692406,"longitude":20.9742722}},"address":"ul. Żwirki i Wigury 1","full_address":"ul. Żwirki i Wigury 1, 00-906 Warszawa, Poland","coordinates":{"latitude":52.1692406,"longitude":20.9742722}},{"id":10118,"uuid":"dcc454ac-9603-11e6-9066-549f350fcb0c","name":"Warsaw West","default_address":{"address":"Aleje Jerozolimskie 144","full_address":"Aleje Jerozolimskie 144, 02-303 Warszawa, Poland","coordinates":{"latitude":52.218398,"longitude":20.961755}},"address":"Aleje Jerozolimskie 144","full_address":"Aleje Jerozolimskie 144, 02-303 Warszawa, Poland","coordinates":{"latitude":52.218398,"longitude":20.961755}},{"id":10768,"uuid":"dcc4c5ea-9603-11e6-9066-549f350fcb0c","name":"Warsaw Centrum","default_address":{"address":"ul. Marszałkowska 104/122","full_address":"ul. Marszałkowska 104/122, 00-017 Warszawa, Poland","coordinates":{"latitude":52.231858,"longitude":21.010823}},"address":"ul. Marszałkowska 104/122","full_address":"ul. Marszałkowska 104/122, 00-017 Warszawa, Poland","coordinates":{"latitude":52.231858,"longitude":21.010823}}],"ride_id":139825121,"trip_uid":"direct:139825121:9438:10768","has_tracker":false,"is_cancelled":false,"line_code":"ŻakExpress (K321)","direction":"Suwałki, Dworzec Autobusowy"},{"through_the_stations":"Białystok, Dworzec Autobusowy → Warsaw Centrum","datetime":{"timestamp":1624537380,"tz":"GMT+02:00"},"line_direction":"Route ŻakExpress (K318) direction Warszawa, Lotnisko Chopina","route":[{"id":33081,"uuid":"e383decd-d064-423a-ab3b-600e6023edde","name":"Białystok, Dworzec Autobusowy","default_address":{"address":"ul. Bohaterów Monte Cassino 8","full_address":"ul. Bohaterów Monte Cassino 8, 15-873 Bialystok, Poland","coordinates":{"latitude":53.132833,"longitude":23.135389}},"address":"ul. Bohaterów Monte Cassino 8","full_address":"ul. Bohaterów Monte Cassino 8, 15-873 Bialystok, Poland","coordinates":{"latitude":53.132833,"longitude":23.135389}},{"id":10768,"uuid":"dcc4c5ea-9603-11e6-9066-549f350fcb0c","name":"Warsaw Centrum","default_address":{"address":"ul. Marszałkowska 104/122","full_address":"ul. Marszałkowska 104/122, 00-017 Warszawa, Poland","coordinates":{"latitude":52.231858,"longitude":21.010823}},"address":"ul. Marszałkowska 104/122","full_address":"ul. Marszałkowska 104/122, 00-017 Warszawa, Poland","coordinates":{"latitude":52.231858,"longitude":21.010823}}],"ride_id":139819391,"trip_uid":"direct:139819391:33081:10768","has_tracker":false,"is_cancelled":false,"line_code":"ŻakExpress (K318)","direction":"Warszawa, Lotnisko Chopina"},{"through_the_stations":"Suwałki, Dworzec Autobusowy → Augustów, ul.29 Listopada, Dom Nauczyciela/Fregata → Augustów, Wojska Polskiego, Orlen/Kaufland → Ełk → Grajewo → Łomża, Dworzec Autobusowy → Warsaw Centrum","datetime":{"timestamp":1624538460,"tz":"GMT+02:00"},"line_direction":"Route ŻakExpress (K321) direction Warszawa, Lotnisko Chopina","route":[{"id":33011,"uuid":"3fe75e60-5d24-41d8-a369-9c5fe544feee","name":"Suwałki, Dworzec Autobusowy","default_address":{"address":"ul. Utrata 1b","full_address":"ul. Utrata 1b, 16-402 Suwalki, Poland","coordinates":{"latitude":54.105204125114,"longitude":22.938839300152}},"address":"ul. Utrata 1b","full_address":"ul. Utrata 1b, 16-402 Suwalki, Poland","coordinates":{"latitude":54.105204125114,"longitude":22.938839300152}},{"id":33031,"uuid":"d7d2a0fc-af68-4591-84c1-7d7bf5871f8e","name":"Augustów, ul.29 Listopada, Dom Nauczyciela/Fregata","default_address":{"address":"ul. 29 Listopada 4","full_address":"ul. 29 Listopada 4, 16-300 Augustów, Poland","coordinates":{"latitude":53.844741911206,"longitude":22.996572824111}},"address":"ul. 29 Listopada 4","full_address":"ul. 29 Listopada 4, 16-300 Augustów, Poland","coordinates":{"latitude":53.844741911206,"longitude":22.996572824111}},{"id":33021,"uuid":"c3f20e88-0583-4a4e-a4b2-8e845ef72212","name":"Augustów, Wojska Polskiego, Orlen/Kaufland","default_address":{"address":"Wojska Polskiego 53, 16-300 Augustów","full_address":"Wojska Polskiego 53, 16-300 Augustów, 16-300 Augustów, Poland","coordinates":{"latitude":53.837979168634,"longitude":22.973082721635}},"address":"Wojska Polskiego 53, 16-300 Augustów","full_address":"Wojska Polskiego 53, 16-300 Augustów, 16-300 Augustów, Poland","coordinates":{"latitude":53.837979168634,"longitude":22.973082721635}},{"id":32981,"uuid":"a5f33a0a-2ff9-4907-9f2a-6e6ae238717c","name":"Ełk","default_address":{"address":"Jarosława Dąbrowskiego","full_address":"Jarosława Dąbrowskiego, 19-311 Elk, Poland","coordinates":{"latitude":53.825298116801,"longitude":22.360769212246}},"address":"Jarosława Dąbrowskiego","full_address":"Jarosława Dąbrowskiego, 19-311 Elk, Poland","coordinates":{"latitude":53.825298116801,"longitude":22.360769212246}},{"id":32991,"uuid":"5308861f-42d2-41b0-9f68-9cb76040638e","name":"Grajewo","default_address":{"address":"ul. Popiełuszki","full_address":"ul. Popiełuszki, 19-200 Grajewo, Poland","coordinates":{"latitude":53.646410441882,"longitude":22.452288416133}},"address":"ul. Popiełuszki","full_address":"ul. Popiełuszki, 19-200 Grajewo, Poland","coordinates":{"latitude":53.646410441882,"longitude":22.452288416133}},{"id":33001,"uuid":"1d8d0969-292a-490d-8a5c-9061a22619aa","name":"Łomża, Dworzec Autobusowy","default_address":{"address":"ul. Dworcowa 4","full_address":"ul. Dworcowa 4, 18-400 Łomża, Poland","coordinates":{"latitude":53.172725184419,"longitude":22.06705665096}},"address":"ul. Dworcowa 4","full_address":"ul. Dworcowa 4, 18-400 Łomża, Poland","coordinates":{"latitude":53.172725184419,"longitude":22.06705665096}},{"id":10768,"uuid":"dcc4c5ea-9603-11e6-9066-549f350fcb0c","name":"Warsaw Centrum","default_address":{"address":"ul. Marszałkowska 104/122","full_address":"ul. Marszałkowska 104/122, 00-017 Warszawa, Poland","coordinates":{"latitude":52.231858,"longitude":21.010823}},"address":"ul. Marszałkowska 104/122","full_address":"ul. Marszałkowska 104/122, 00-017 Warszawa, Poland","coordinates":{"latitude":52.231858,"longitude":21.010823}}],"ride_id":139825061,"trip_uid":"direct:139825061:33011:10768","has_tracker":false,"is_cancelled":false,"line_code":"ŻakExpress (K321)","direction":"Warszawa, Lotnisko Chopina"},{"through_the_stations":"Warszawa, Lotnisko Chopina → Warsaw West → Warsaw Centrum","datetime":{"timestamp":1624542900,"tz":"GMT+02:00"},"line_direction":"Route ŻakExpress (K318) direction Białystok, Dworzec Autobusowy","route":[{"id":9438,"uuid":"dcc3e708-9603-11e6-9066-549f350fcb0c","name":"Warszawa, Lotnisko Chopina","default_address":{"address":"ul. Żwirki i Wigury 1","full_address":"ul. Żwirki i Wigury 1, 00-906 Warszawa, Poland","coordinates":{"latitude":52.1692406,"longitude":20.9742722}},"address":"ul. Żwirki i Wigury 1","full_address":"ul. Żwirki i Wigury 1, 00-906 Warszawa, Poland","coordinates":{"latitude":52.1692406,"longitude":20.9742722}},{"id":10118,"uuid":"dcc454ac-9603-11e6-9066-549f350fcb0c","name":"Warsaw West","default_address":{"address":"Aleje Jerozolimskie 144","full_address":"Aleje Jerozolimskie 144, 02-303 Warszawa, Poland","coordinates":{"latitude":52.218398,"longitude":20.961755}},"address":"Aleje Jerozolimskie 144","full_address":"Aleje Jerozolimskie 144, 02-303 Warszawa, Poland","coordinates":{"latitude":52.218398,"longitude":20.961755}},{"id":10768,"uuid":"dcc4c5ea-9603-11e6-9066-549f350fcb0c","name":"Warsaw Centrum","default_address":{"address":"ul. Marszałkowska 104/122","full_address":"ul. Marszałkowska 104/122, 00-017 Warszawa, Poland","coordinates":{"latitude":52.231858,"longitude":21.010823}},"address":"ul. Marszałkowska 104/122","full_address":"ul. Marszałkowska 104/122, 00-017 Warszawa, Poland","coordinates":{"latitude":52.231858,"longitude":21.010823}}],"ride_id":139819341,"trip_uid":"direct:139819341:9438:10768","has_tracker":false,"is_cancelled":false,"line_code":"ŻakExpress (K318)","direction":"Białystok, Dworzec Autobusowy"},{"through_the_stations":"Warszawa, Lotnisko Chopina → Warsaw West → Warsaw Centrum","datetime":{"timestamp":1624543500,"tz":"GMT+02:00"},"line_direction":"Route ŻakExpress (K321) direction Suwałki, Dworzec Autobusowy","route":[{"id":9438,"uuid":"dcc3e708-9603-11e6-9066-549f350fcb0c","name":"Warszawa, Lotnisko Chopina","default_address":{"address":"ul. Żwirki i Wigury 1","full_address":"ul. Żwirki i Wigury 1, 00-906 Warszawa, Poland","coordinates":{"latitude":52.1692406,"longitude":20.9742722}},"address":"ul. Żwirki i Wigury 1","full_address":"ul. Żwirki i Wigury 1, 00-906 Warszawa, Poland","coordinates":{"latitude":52.1692406,"longitude":20.9742722}},{"id":10118,"uuid":"dcc454ac-9603-11e6-9066-549f350fcb0c","name":"Warsaw West","default_address":{"address":"Aleje Jerozolimskie 144","full_address":"Aleje Jerozolimskie 144, 02-303 Warszawa, Poland","coordinates":{"latitude":52.218398,"longitude":20.961755}},"address":"Aleje Jerozolimskie 144","full_address":"Aleje Jerozolimskie 144, 02-303 Warszawa, Poland","coordinates":{"latitude":52.218398,"longitude":20.961755}},{"id":10768,"uuid":"dcc4c5ea-9603-11e6-9066-549f350fcb0c","name":"Warsaw Centrum","default_address":{"address":"ul. Marszałkowska 104/122","full_address":"ul. Marszałkowska 104/122, 00-017 Warszawa, Poland","coordinates":{"latitude":52.231858,"longitude":21.010823}},"address":"ul. Marszałkowska 104/122","full_address":"ul. Marszałkowska 104/122, 00-017 Warszawa, Poland","coordinates":{"latitude":52.231858,"longitude":21.010823}}],"ride_id":139825171,"trip_uid":"direct:139825171:9438:10768","has_tracker":false,"is_cancelled":false,"line_code":"ŻakExpress (K321)","direction":"Suwałki, Dworzec Autobusowy"},{"through_the_stations":"Suwałki, Dworzec Autobusowy → Augustów, ul.29 Listopada, Dom Nauczyciela/Fregata → Augustów, Wojska Polskiego, Orlen/Kaufland → Ełk → Grajewo → Łomża, Dworzec Autobusowy → Warsaw Centrum","datetime":{"timestamp":1624548960,"tz":"GMT+02:00"},"line_direction":"Route ŻakExpress (K321) direction Warszawa, Lotnisko Chopina","route":[{"id":33011,"uuid":"3fe75e60-5d24-41d8-a369-9c5fe544feee","name":"Suwałki, Dworzec Autobusowy","default_address":{"address":"ul. Utrata 1b","full_address":"ul. Utrata 1b, 16-402 Suwalki, Poland","coordinates":{"latitude":54.105204125114,"longitude":22.938839300152}},"address":"ul. Utrata 1b","full_address":"ul. Utrata 1b, 16-402 Suwalki, Poland","coordinates":{"latitude":54.105204125114,"longitude":22.938839300152}},{"id":33031,"uuid":"d7d2a0fc-af68-4591-84c1-7d7bf5871f8e","name":"Augustów, ul.29 Listopada, Dom Nauczyciela/Fregata","default_address":{"address":"ul. 29 Listopada 4","full_address":"ul. 29 Listopada 4, 16-300 Augustów, Poland","coordinates":{"latitude":53.844741911206,"longitude":22.996572824111}},"address":"ul. 29 Listopada 4","full_address":"ul. 29 Listopada 4, 16-300 Augustów, Poland","coordinates":{"latitude":53.844741911206,"longitude":22.996572824111}},{"id":33021,"uuid":"c3f20e88-0583-4a4e-a4b2-8e845ef72212","name":"Augustów, Wojska Polskiego, Orlen/Kaufland","default_address":{"address":"Wojska Polskiego 53, 16-300 Augustów","full_address":"Wojska Polskiego 53, 16-300 Augustów, 16-300 Augustów, Poland","coordinates":{"latitude":53.837979168634,"longitude":22.973082721635}},"address":"Wojska Polskiego 53, 16-300 Augustów","full_address":"Wojska Polskiego 53, 16-300 Augustów, 16-300 Augustów, Poland","coordinates":{"latitude":53.837979168634,"longitude":22.973082721635}},{"id":32981,"uuid":"a5f33a0a-2ff9-4907-9f2a-6e6ae238717c","name":"Ełk","default_address":{"address":"Jarosława Dąbrowskiego","full_address":"Jarosława Dąbrowskiego, 19-311 Elk, Poland","coordinates":{"latitude":53.825298116801,"longitude":22.360769212246}},"address":"Jarosława Dąbrowskiego","full_address":"Jarosława Dąbrowskiego, 19-311 Elk, Poland","coordinates":{"latitude":53.825298116801,"longitude":22.360769212246}},{"id":32991,"uuid":"5308861f-42d2-41b0-9f68-9cb76040638e","name":"Grajewo","default_address":{"address":"ul. Popiełuszki","full_address":"ul. Popiełuszki, 19-200 Grajewo, Poland","coordinates":{"latitude":53.646410441882,"longitude":22.452288416133}},"address":"ul. Popiełuszki","full_address":"ul. Popiełuszki, 19-200 Grajewo, Poland","coordinates":{"latitude":53.646410441882,"longitude":22.452288416133}},{"id":33001,"uuid":"1d8d0969-292a-490d-8a5c-9061a22619aa","name":"Łomża, Dworzec Autobusowy","default_address":{"address":"ul. Dworcowa 4","full_address":"ul. Dworcowa 4, 18-400 Łomża, Poland","coordinates":{"latitude":53.172725184419,"longitude":22.06705665096}},"address":"ul. Dworcowa 4","full_address":"ul. Dworcowa 4, 18-400 Łomża, Poland","coordinates":{"latitude":53.172725184419,"longitude":22.06705665096}},{"id":10768,"uuid":"dcc4c5ea-9603-11e6-9066-549f350fcb0c","name":"Warsaw Centrum","default_address":{"address":"ul. Marszałkowska 104/122","full_address":"ul. Marszałkowska 104/122, 00-017 Warszawa, Poland","coordinates":{"latitude":52.231858,"longitude":21.010823}},"address":"ul. Marszałkowska 104/122","full_address":"ul. Marszałkowska 104/122, 00-017 Warszawa, Poland","coordinates":{"latitude":52.231858,"longitude":21.010823}}],"ride_id":139824971,"trip_uid":"direct:139824971:33011:10768","has_tracker":false,"is_cancelled":false,"line_code":"ŻakExpress (K321)","direction":"Warszawa, Lotnisko Chopina"},{"through_the_stations":"Warszawa, Lotnisko Chopina → Warsaw West → Warsaw Centrum","datetime":{"timestamp":1624549200,"tz":"GMT+02:00"},"line_direction":"Route ŻakExpress (K321) direction Suwałki, Dworzec Autobusowy","route":[{"id":9438,"uuid":"dcc3e708-9603-11e6-9066-549f350fcb0c","name":"Warszawa, Lotnisko Chopina","default_address":{"address":"ul. Żwirki i Wigury 1","full_address":"ul. Żwirki i Wigury 1, 00-906 Warszawa, Poland","coordinates":{"latitude":52.1692406,"longitude":20.9742722}},"address":"ul. Żwirki i Wigury 1","full_address":"ul. Żwirki i Wigury 1, 00-906 Warszawa, Poland","coordinates":{"latitude":52.1692406,"longitude":20.9742722}},{"id":10118,"uuid":"dcc454ac-9603-11e6-9066-549f350fcb0c","name":"Warsaw West","default_address":{"address":"Aleje Jerozolimskie 144","full_address":"Aleje Jerozolimskie 144, 02-303 Warszawa, Poland","coordinates":{"latitude":52.218398,"longitude":20.961755}},"address":"Aleje Jerozolimskie 144","full_address":"Aleje Jerozolimskie 144, 02-303 Warszawa, Poland","coordinates":{"latitude":52.218398,"longitude":20.961755}},{"id":10768,"uuid":"dcc4c5ea-9603-11e6-9066-549f350fcb0c","name":"Warsaw Centrum","default_address":{"address":"ul. Marszałkowska 104/122","full_address":"ul. Marszałkowska 104/122, 00-017 Warszawa, Poland","coordinates":{"latitude":52.231858,"longitude":21.010823}},"address":"ul. Marszałkowska 104/122","full_address":"ul. Marszałkowska 104/122, 00-017 Warszawa, Poland","coordinates":{"latitude":52.231858,"longitude":21.010823}}],"ride_id":139825221,"trip_uid":"direct:139825221:9438:10768","has_tracker":false,"is_cancelled":false,"line_code":"ŻakExpress (K321)","direction":"Suwałki, Dworzec Autobusowy"},{"through_the_stations":"Warszawa, Lotnisko Chopina → Warsaw West → Warsaw Centrum","datetime":{"timestamp":1624550100,"tz":"GMT+02:00"},"line_direction":"Route ŻakExpress (K318) direction Białystok, Dworzec Autobusowy","route":[{"id":9438,"uuid":"dcc3e708-9603-11e6-9066-549f350fcb0c","name":"Warszawa, Lotnisko Chopina","default_address":{"address":"ul. Żwirki i Wigury 1","full_address":"ul. Żwirki i Wigury 1, 00-906 Warszawa, Poland","coordinates":{"latitude":52.1692406,"longitude":20.9742722}},"address":"ul. Żwirki i Wigury 1","full_address":"ul. Żwirki i Wigury 1, 00-906 Warszawa, Poland","coordinates":{"latitude":52.1692406,"longitude":20.9742722}},{"id":10118,"uuid":"dcc454ac-9603-11e6-9066-549f350fcb0c","name":"Warsaw West","default_address":{"address":"Aleje Jerozolimskie 144","full_address":"Aleje Jerozolimskie 144, 02-303 Warszawa, Poland","coordinates":{"latitude":52.218398,"longitude":20.961755}},"address":"Aleje Jerozolimskie 144","full_address":"Aleje Jerozolimskie 144, 02-303 Warszawa, Poland","coordinates":{"latitude":52.218398,"longitude":20.961755}},{"id":10768,"uuid":"dcc4c5ea-9603-11e6-9066-549f350fcb0c","name":"Warsaw Centrum","default_address":{"address":"ul. Marszałkowska 104/122","full_address":"ul. Marszałkowska 104/122, 00-017 Warszawa, Poland","coordinates":{"latitude":52.231858,"longitude":21.010823}},"address":"ul. Marszałkowska 104/122","full_address":"ul. Marszałkowska 104/122, 00-017 Warszawa, Poland","coordinates":{"latitude":52.231858,"longitude":21.010823}}],"ride_id":139819351,"trip_uid":"direct:139819351:9438:10768","has_tracker":false,"is_cancelled":false,"line_code":"ŻakExpress (K318)","direction":"Białystok, Dworzec Autobusowy"},{"through_the_stations":"Warszawa, Lotnisko Chopina → Warsaw West → Warsaw Centrum","datetime":{"timestamp":1624558200,"tz":"GMT+02:00"},"line_direction":"Route ŻakExpress (K321) direction Suwałki, Dworzec Autobusowy","route":[{"id":9438,"uuid":"dcc3e708-9603-11e6-9066-549f350fcb0c","name":"Warszawa, Lotnisko Chopina","default_address":{"address":"ul. Żwirki i Wigury 1","full_address":"ul. Żwirki i Wigury 1, 00-906 Warszawa, Poland","coordinates":{"latitude":52.1692406,"longitude":20.9742722}},"address":"ul. Żwirki i Wigury 1","full_address":"ul. Żwirki i Wigury 1, 00-906 Warszawa, Poland","coordinates":{"latitude":52.1692406,"longitude":20.9742722}},{"id":10118,"uuid":"dcc454ac-9603-11e6-9066-549f350fcb0c","name":"Warsaw West","default_address":{"address":"Aleje Jerozolimskie 144","full_address":"Aleje Jerozolimskie 144, 02-303 Warszawa, Poland","coordinates":{"latitude":52.218398,"longitude":20.961755}},"address":"Aleje Jerozolimskie 144","full_address":"Aleje Jerozolimskie 144, 02-303 Warszawa, Poland","coordinates":{"latitude":52.218398,"longitude":20.961755}},{"id":10768,"uuid":"dcc4c5ea-9603-11e6-9066-549f350fcb0c","name":"Warsaw Centrum","default_address":{"address":"ul. Marszałkowska 104/122","full_address":"ul. Marszałkowska 104/122, 00-017 Warszawa, Poland","coordinates":{"latitude":52.231858,"longitude":21.010823}},"address":"ul. Marszałkowska 104/122","full_address":"ul. Marszałkowska 104/122, 00-017 Warszawa, Poland","coordinates":{"latitude":52.231858,"longitude":21.010823}}],"ride_id":139825081,"trip_uid":"direct:139825081:9438:10768","has_tracker":false,"is_cancelled":false,"line_code":"ŻakExpress (K321)","direction":"Suwałki, Dworzec Autobusowy"},{"through_the_stations":"Warszawa, Lotnisko Chopina → Warsaw West → Warsaw Centrum","datetime":{"timestamp":1624575900,"tz":"GMT+02:00"},"line_direction":"Route ŻakExpress (K321) direction Suwałki, Dworzec Autobusowy","route":[{"id":9438,"uuid":"dcc3e708-9603-11e6-9066-549f350fcb0c","name":"Warszawa, Lotnisko Chopina","default_address":{"address":"ul. Żwirki i Wigury 1","full_address":"ul. Żwirki i Wigury 1, 00-906 Warszawa, Poland","coordinates":{"latitude":52.1692406,"longitude":20.9742722}},"address":"ul. Żwirki i Wigury 1","full_address":"ul. Żwirki i Wigury 1, 00-906 Warszawa, Poland","coordinates":{"latitude":52.1692406,"longitude":20.9742722}},{"id":10118,"uuid":"dcc454ac-9603-11e6-9066-549f350fcb0c","name":"Warsaw West","default_address":{"address":"Aleje Jerozolimskie 144","full_address":"Aleje Jerozolimskie 144, 02-303 Warszawa, Poland","coordinates":{"latitude":52.218398,"longitude":20.961755}},"address":"Aleje Jerozolimskie 144","full_address":"Aleje Jerozolimskie 144, 02-303 Warszawa, Poland","coordinates":{"latitude":52.218398,"longitude":20.961755}},{"id":10768,"uuid":"dcc4c5ea-9603-11e6-9066-549f350fcb0c","name":"Warsaw Centrum","default_address":{"address":"ul. Marszałkowska 104/122","full_address":"ul. Marszałkowska 104/122, 00-017 Warszawa, Poland","coordinates":{"latitude":52.231858,"longitude":21.010823}},"address":"ul. Marszałkowska 104/122","full_address":"ul. Marszałkowska 104/122, 00-017 Warszawa, Poland","coordinates":{"latitude":52.231858,"longitude":21.010823}}],"ride_id":139825601,"trip_uid":"direct:139825601:9438:10768","has_tracker":false,"is_cancelled":false,"line_code":"ŻakExpress (K321)","direction":"Suwałki, Dworzec Autobusowy"},{"through_the_stations":"Warszawa, Lotnisko Chopina → Warsaw West → Warsaw Centrum","datetime":{"timestamp":1624596000,"tz":"GMT+02:00"},"line_direction":"Route ŻakExpress (K321) direction Suwałki, Dworzec Autobusowy","route":[{"id":9438,"uuid":"dcc3e708-9603-11e6-9066-549f350fcb0c","name":"Warszawa, Lotnisko Chopina","default_address":{"address":"ul. Żwirki i Wigury 1","full_address":"ul. Żwirki i Wigury 1, 00-906 Warszawa, Poland","coordinates":{"latitude":52.1692406,"longitude":20.9742722}},"address":"ul. Żwirki i Wigury 1","full_address":"ul. Żwirki i Wigury 1, 00-906 Warszawa, Poland","coordinates":{"latitude":52.1692406,"longitude":20.9742722}},{"id":10118,"uuid":"dcc454ac-9603-11e6-9066-549f350fcb0c","name":"Warsaw West","default_address":{"address":"Aleje Jerozolimskie 144","full_address":"Aleje Jerozolimskie 144, 02-303 Warszawa, Poland","coordinates":{"latitude":52.218398,"longitude":20.961755}},"address":"Aleje Jerozolimskie 144","full_address":"Aleje Jerozolimskie 144, 02-303 Warszawa, Poland","coordinates":{"latitude":52.218398,"longitude":20.961755}},{"id":10768,"uuid":"dcc4c5ea-9603-11e6-9066-549f350fcb0c","name":"Warsaw Centrum","default_address":{"address":"ul. Marszałkowska 104/122","full_address":"ul. Marszałkowska 104/122, 00-017 Warszawa, Poland","coordinates":{"latitude":52.231858,"longitude":21.010823}},"address":"ul. Marszałkowska 104/122","full_address":"ul. Marszałkowska 104/122, 00-017 Warszawa, Poland","coordinates":{"latitude":52.231858,"longitude":21.010823}}],"ride_id":139825321,"trip_uid":"direct:139825321:9438:10768","has_tracker":false,"is_cancelled":false,"line_code":"ŻakExpress (K321)","direction":"Suwałki, Dworzec Autobusowy"},{"through_the_stations":"Suwałki, Dworzec Autobusowy → Augustów, ul.29 Listopada, Dom Nauczyciela/Fregata → Augustów, Wojska Polskiego, Orlen/Kaufland → Ełk → Grajewo → Łomża, Dworzec Autobusowy → Warsaw Centrum","datetime":{"timestamp":1624597260,"tz":"GMT+02:00"},"line_direction":"Route ŻakExpress (K321) direction Warszawa, Lotnisko Chopina","route":[{"id":33011,"uuid":"3fe75e60-5d24-41d8-a369-9c5fe544feee","name":"Suwałki, Dworzec Autobusowy","default_address":{"address":"ul. Utrata 1b","full_address":"ul. Utrata 1b, 16-402 Suwalki, Poland","coordinates":{"latitude":54.105204125114,"longitude":22.938839300152}},"address":"ul. Utrata 1b","full_address":"ul. Utrata 1b, 16-402 Suwalki, Poland","coordinates":{"latitude":54.105204125114,"longitude":22.938839300152}},{"id":33031,"uuid":"d7d2a0fc-af68-4591-84c1-7d7bf5871f8e","name":"Augustów, ul.29 Listopada, Dom Nauczyciela/Fregata","default_address":{"address":"ul. 29 Listopada 4","full_address":"ul. 29 Listopada 4, 16-300 Augustów, Poland","coordinates":{"latitude":53.844741911206,"longitude":22.996572824111}},"address":"ul. 29 Listopada 4","full_address":"ul. 29 Listopada 4, 16-300 Augustów, Poland","coordinates":{"latitude":53.844741911206,"longitude":22.996572824111}},{"id":33021,"uuid":"c3f20e88-0583-4a4e-a4b2-8e845ef72212","name":"Augustów, Wojska Polskiego, Orlen/Kaufland","default_address":{"address":"Wojska Polskiego 53, 16-300 Augustów","full_address":"Wojska Polskiego 53, 16-300 Augustów, 16-300 Augustów, Poland","coordinates":{"latitude":53.837979168634,"longitude":22.973082721635}},"address":"Wojska Polskiego 53, 16-300 Augustów","full_address":"Wojska Polskiego 53, 16-300 Augustów, 16-300 Augustów, Poland","coordinates":{"latitude":53.837979168634,"longitude":22.973082721635}},{"id":32981,"uuid":"a5f33a0a-2ff9-4907-9f2a-6e6ae238717c","name":"Ełk","default_address":{"address":"Jarosława Dąbrowskiego","full_address":"Jarosława Dąbrowskiego, 19-311 Elk, Poland","coordinates":{"latitude":53.825298116801,"longitude":22.360769212246}},"address":"Jarosława Dąbrowskiego","full_address":"Jarosława Dąbrowskiego, 19-311 Elk, Poland","coordinates":{"latitude":53.825298116801,"longitude":22.360769212246}},{"id":32991,"uuid":"5308861f-42d2-41b0-9f68-9cb76040638e","name":"Grajewo","default_address":{"address":"ul. Popiełuszki","full_address":"ul. Popiełuszki, 19-200 Grajewo, Poland","coordinates":{"latitude":53.646410441882,"longitude":22.452288416133}},"address":"ul. Popiełuszki","full_address":"ul. Popiełuszki, 19-200 Grajewo, Poland","coordinates":{"latitude":53.646410441882,"longitude":22.452288416133}},{"id":33001,"uuid":"1d8d0969-292a-490d-8a5c-9061a22619aa","name":"Łomża, Dworzec Autobusowy","default_address":{"address":"ul. Dworcowa 4","full_address":"ul. Dworcowa 4, 18-400 Łomża, Poland","coordinates":{"latitude":53.172725184419,"longitude":22.06705665096}},"address":"ul. Dworcowa 4","full_address":"ul. Dworcowa 4, 18-400 Łomża, Poland","coordinates":{"latitude":53.172725184419,"longitude":22.06705665096}},{"id":10768,"uuid":"dcc4c5ea-9603-11e6-9066-549f350fcb0c","name":"Warsaw Centrum","default_address":{"address":"ul. Marszałkowska 104/122","full_address":"ul. Marszałkowska 104/122, 00-017 Warszawa, Poland","coordinates":{"latitude":52.231858,"longitude":21.010823}},"address":"ul. Marszałkowska 104/122","full_address":"ul. Marszałkowska 104/122, 00-017 Warszawa, Poland","coordinates":{"latitude":52.231858,"longitude":21.010823}}],"ride_id":139825481,"trip_uid":"direct:139825481:33011:10768","has_tracker":false,"is_cancelled":false,"line_code":"ŻakExpress (K321)","direction":"Warszawa, Lotnisko Chopina"},{"through_the_stations":"Białystok, Dworzec Autobusowy→ Warsaw Centrum","datetime":{"timestamp":1624602180,"tz":"GMT+02:00"},"line_direction":"Route ŻakExpress (K318) direction Warszawa, Lotnisko Chopina","route":[{"id":33081,"uuid":"e383decd-d064-423a-ab3b-600e6023edde","name":"Białystok, Dworzec Autobusowy","default_address":{"address":"ul. Bohaterów Monte Cassino 8","full_address":"ul. Bohaterów Monte Cassino 8, 15-873 Bialystok, Poland","coordinates":{"latitude":53.132833,"longitude":23.135389}},"address":"ul. Bohaterów Monte Cassino 8","full_address":"ul. Bohaterów Monte Cassino 8, 15-873 Bialystok, Poland","coordinates":{"latitude":53.132833,"longitude":23.135389}},{"id":10768,"uuid":"dcc4c5ea-9603-11e6-9066-549f350fcb0c","name":"Warsaw Centrum","default_address":{"address":"ul. Marszałkowska 104/122","full_address":"ul. Marszałkowska 104/122, 00-017 Warszawa, Poland","coordinates":{"latitude":52.231858,"longitude":21.010823}},"address":"ul. Marszałkowska 104/122","full_address":"ul. Marszałkowska 104/122, 00-017 Warszawa, Poland","coordinates":{"latitude":52.231858,"longitude":21.010823}}],"ride_id":139819511,"trip_uid":"direct:139819511:33081:10768","has_tracker":false,"is_cancelled":false,"line_code":"ŻakExpress (K318)","direction":"Warszawa, Lotnisko Chopina"},{"through_the_stations":"Suwałki, Dworzec Autobusowy → Augustów, ul.29 Listopada, Dom Nauczyciela/Fregata → Augustów, Wojska Polskiego, Orlen/Kaufland → Ełk → Grajewo → Łomża, Dworzec Autobusowy → Warsaw Centrum","datetime":{"timestamp":1624606260,"tz":"GMT+02:00"},"line_direction":"Route ŻakExpress (K321) direction Warszawa, Lotnisko Chopina","route":[{"id":33011,"uuid":"3fe75e60-5d24-41d8-a369-9c5fe544feee","name":"Suwałki, Dworzec Autobusowy","default_address":{"address":"ul. Utrata 1b","full_address":"ul. Utrata 1b, 16-402 Suwalki, Poland","coordinates":{"latitude":54.105204125114,"longitude":22.938839300152}},"address":"ul. Utrata 1b","full_address":"ul. Utrata 1b, 16-402 Suwalki, Poland","coordinates":{"latitude":54.105204125114,"longitude":22.938839300152}},{"id":33031,"uuid":"d7d2a0fc-af68-4591-84c1-7d7bf5871f8e","name":"Augustów, ul.29 Listopada, Dom Nauczyciela/Fregata","default_address":{"address":"ul. 29 Listopada 4","full_address":"ul. 29 Listopada 4, 16-300 Augustów, Poland","coordinates":{"latitude":53.844741911206,"longitude":22.996572824111}},"address":"ul. 29 Listopada 4","full_address":"ul. 29 Listopada 4, 16-300 Augustów, Poland","coordinates":{"latitude":53.844741911206,"longitude":22.996572824111}},{"id":33021,"uuid":"c3f20e88-0583-4a4e-a4b2-8e845ef72212","name":"Augustów, Wojska Polskiego, Orlen/Kaufland","default_address":{"address":"Wojska Polskiego 53, 16-300 Augustów","full_address":"Wojska Polskiego 53, 16-300 Augustów, 16-300 Augustów, Poland","coordinates":{"latitude":53.837979168634,"longitude":22.973082721635}},"address":"Wojska Polskiego 53, 16-300 Augustów","full_address":"Wojska Polskiego 53, 16-300 Augustów, 16-300 Augustów, Poland","coordinates":{"latitude":53.837979168634,"longitude":22.973082721635}},{"id":32981,"uuid":"a5f33a0a-2ff9-4907-9f2a-6e6ae238717c","name":"Ełk","default_address":{"address":"Jarosława Dąbrowskiego","full_address":"Jarosława Dąbrowskiego, 19-311 Elk, Poland","coordinates":{"latitude":53.825298116801,"longitude":22.360769212246}},"address":"Jarosława Dąbrowskiego","full_address":"Jarosława Dąbrowskiego, 19-311 Elk, Poland","coordinates":{"latitude":53.825298116801,"longitude":22.360769212246}},{"id":32991,"uuid":"5308861f-42d2-41b0-9f68-9cb76040638e","name":"Grajewo","default_address":{"address":"ul. Popiełuszki","full_address":"ul. Popiełuszki, 19-200 Grajewo, Poland","coordinates":{"latitude":53.646410441882,"longitude":22.452288416133}},"address":"ul. Popiełuszki","full_address":"ul. Popiełuszki, 19-200 Grajewo, Poland","coordinates":{"latitude":53.646410441882,"longitude":22.452288416133}},{"id":33001,"uuid":"1d8d0969-292a-490d-8a5c-9061a22619aa","name":"Łomża, Dworzec Autobusowy","default_address":{"address":"ul. Dworcowa 4","full_address":"ul. Dworcowa 4, 18-400 Łomża, Poland","coordinates":{"latitude":53.172725184419,"longitude":22.06705665096}},"address":"ul. Dworcowa 4","full_address":"ul. Dworcowa 4, 18-400 Łomża, Poland","coordinates":{"latitude":53.172725184419,"longitude":22.06705665096}},{"id":10768,"uuid":"dcc4c5ea-9603-11e6-9066-549f350fcb0c","name":"Warsaw Centrum","default_address":{"address":"ul. Marszałkowska 104/122","full_address":"ul. Marszałkowska 104/122, 00-017 Warszawa, Poland","coordinates":{"latitude":52.231858,"longitude":21.010823}},"address":"ul. Marszałkowska 104/122","full_address":"ul. Marszałkowska 104/122, 00-017 Warszawa, Poland","coordinates":{"latitude":52.231858,"longitude":21.010823}}],"ride_id":139825531,"trip_uid":"direct:139825531:33011:10768","has_tracker":false,"is_cancelled":false,"line_code":"ŻakExpress (K321)","direction":"Warszawa, Lotnisko Chopina"},{"through_the_stations":"Warszawa, Lotnisko Chopina → Warsaw West → Warsaw Centrum","datetime":{"timestamp":1624608600,"tz":"GMT+02:00"},"line_direction":"Route ŻakExpress (K321) direction Suwałki, Dworzec Autobusowy","route":[{"id":9438,"uuid":"dcc3e708-9603-11e6-9066-549f350fcb0c","name":"Warszawa, Lotnisko Chopina","default_address":{"address":"ul. Żwirki i Wigury 1","full_address":"ul. Żwirki i Wigury 1, 00-906 Warszawa, Poland","coordinates":{"latitude":52.1692406,"longitude":20.9742722}},"address":"ul. Żwirki i Wigury 1","full_address":"ul. Żwirki i Wigury 1, 00-906 Warszawa, Poland","coordinates":{"latitude":52.1692406,"longitude":20.9742722}},{"id":10118,"uuid":"dcc454ac-9603-11e6-9066-549f350fcb0c","name":"Warsaw West","default_address":{"address":"Aleje Jerozolimskie 144","full_address":"Aleje Jerozolimskie 144, 02-303 Warszawa, Poland","coordinates":{"latitude":52.218398,"longitude":20.961755}},"address":"Aleje Jerozolimskie 144","full_address":"Aleje Jerozolimskie 144, 02-303 Warszawa, Poland","coordinates":{"latitude":52.218398,"longitude":20.961755}},{"id":10768,"uuid":"dcc4c5ea-9603-11e6-9066-549f350fcb0c","name":"Warsaw Centrum","default_address":{"address":"ul. Marszałkowska 104/122","full_address":"ul. Marszałkowska 104/122, 00-017 Warszawa, Poland","coordinates":{"latitude":52.231858,"longitude":21.010823}},"address":"ul. Marszałkowska 104/122","full_address":"ul. Marszałkowska 104/122, 00-017 Warszawa, Poland","coordinates":{"latitude":52.231858,"longitude":21.010823}}],"ride_id":139825371,"trip_uid":"direct:139825371:9438:10768","has_tracker":false,"is_cancelled":false,"line_code":"ŻakExpress (K321)","direction":"Suwałki, Dworzec Autobusowy"}],"departures":[{"through_the_stations":"Warsaw Centrum → Warsaw West → Warszawa, Lotnisko Chopina","datetime":{"timestamp":1624526580,"tz":"GMT+02:00"},"line_direction":"Route ŻakExpress (K318) direction Warszawa, Lotnisko Chopina","route":[{"id":10768,"uuid":"dcc4c5ea-9603-11e6-9066-549f350fcb0c","name":"Warsaw Centrum","default_address":{"address":"ul. Marszałkowska 104/122","full_address":"ul. Marszałkowska 104/122, 00-017 Warszawa, Poland","coordinates":{"latitude":52.231858,"longitude":21.010823}},"address":"ul. Marszałkowska 104/122","full_address":"ul. Marszałkowska 104/122, 00-017 Warszawa, Poland","coordinates":{"latitude":52.231858,"longitude":21.010823}},{"id":10118,"uuid":"dcc454ac-9603-11e6-9066-549f350fcb0c","name":"Warsaw West","default_address":{"address":"Aleje Jerozolimskie 144","full_address":"Aleje Jerozolimskie 144, 02-303 Warszawa, Poland","coordinates":{"latitude":52.218398,"longitude":20.961755}},"address":"Aleje Jerozolimskie 144","full_address":"Aleje Jerozolimskie 144, 02-303 Warszawa, Poland","coordinates":{"latitude":52.218398,"longitude":20.961755}},{"id":9438,"uuid":"dcc3e708-9603-11e6-9066-549f350fcb0c","name":"Warszawa, Lotnisko Chopina","default_address":{"address":"ul. Żwirki i Wigury 1","full_address":"ul. Żwirki i Wigury 1, 00-906 Warszawa, Poland","coordinates":{"latitude":52.1692406,"longitude":20.9742722}},"address":"ul. Żwirki i Wigury 1","full_address":"ul. Żwirki i Wigury 1, 00-906 Warszawa, Poland","coordinates":{"latitude":52.1692406,"longitude":20.9742722}}],"ride_id":139819321,"trip_uid":"direct:139819321:10768:9438","has_tracker":false,"is_cancelled":false,"line_code":"ŻakExpress (K318)","direction":"Warszawa, Lotnisko Chopina"},{"through_the_stations":"Warsaw Centrum → Warsaw West → Warszawa, Lotnisko Chopina","datetime":{"timestamp":1624529460,"tz":"GMT+02:00"},"line_direction":"Route ŻakExpress (K321) direction Warszawa, Lotnisko Chopina","route":[{"id":10768,"uuid":"dcc4c5ea-9603-11e6-9066-549f350fcb0c","name":"Warsaw Centrum","default_address":{"address":"ul. Marszałkowska 104/122","full_address":"ul. Marszałkowska 104/122, 00-017 Warszawa, Poland","coordinates":{"latitude":52.231858,"longitude":21.010823}},"address":"ul. Marszałkowska 104/122","full_address":"ul. Marszałkowska 104/122, 00-017 Warszawa, Poland","coordinates":{"latitude":52.231858,"longitude":21.010823}},{"id":10118,"uuid":"dcc454ac-9603-11e6-9066-549f350fcb0c","name":"Warsaw West","default_address":{"address":"Aleje Jerozolimskie 144","full_address":"Aleje Jerozolimskie 144, 02-303 Warszawa, Poland","coordinates":{"latitude":52.218398,"longitude":20.961755}},"address":"Aleje Jerozolimskie 144","full_address":"Aleje Jerozolimskie 144, 02-303 Warszawa, Poland","coordinates":{"latitude":52.218398,"longitude":20.961755}},{"id":9438,"uuid":"dcc3e708-9603-11e6-9066-549f350fcb0c","name":"Warszawa, Lotnisko Chopina","default_address":{"address":"ul. Żwirki i Wigury 1","full_address":"ul. Żwirki i Wigury 1, 00-906 Warszawa, Poland","coordinates":{"latitude":52.1692406,"longitude":20.9742722}},"address":"ul. Żwirki i Wigury 1","full_address":"ul. Żwirki i Wigury 1, 00-906 Warszawa, Poland","coordinates":{"latitude":52.1692406,"longitude":20.9742722}}],"ride_id":139825011,"trip_uid":"direct:139825011:10768:9438","has_tracker":false,"is_cancelled":false,"line_code":"ŻakExpress (K321)","direction":"Warszawa, Lotnisko Chopina"},{"through_the_stations":"Warsaw Centrum → Łomża, Dworzec Autobusowy → Grajewo → Ełk → Augustów, Wojska Polskiego, Orlen/Kaufland→ Augustów, ul.29 Listopada, Dom Nauczyciela/Fregata → Suwałki, Dworzec Autobusowy","datetime":{"timestamp":1624533000,"tz":"GMT+02:00"},"line_direction":"Route ŻakExpress (K321) direction Suwałki, Dworzec Autobusowy","route":[{"id":10768,"uuid":"dcc4c5ea-9603-11e6-9066-549f350fcb0c","name":"Warsaw Centrum","default_address":{"address":"ul. Marszałkowska 104/122","full_address":"ul. Marszałkowska 104/122, 00-017 Warszawa, Poland","coordinates":{"latitude":52.231858,"longitude":21.010823}},"address":"ul. Marszałkowska 104/122","full_address":"ul. Marszałkowska 104/122, 00-017 Warszawa, Poland","coordinates":{"latitude":52.231858,"longitude":21.010823}},{"id":33001,"uuid":"1d8d0969-292a-490d-8a5c-9061a22619aa","name":"Łomża, Dworzec Autobusowy","default_address":{"address":"ul. Dworcowa 4","full_address":"ul. Dworcowa 4, 18-400 Łomża, Poland","coordinates":{"latitude":53.172725184419,"longitude":22.06705665096}},"address":"ul. Dworcowa 4","full_address":"ul. Dworcowa 4, 18-400 Łomża, Poland","coordinates":{"latitude":53.172725184419,"longitude":22.06705665096}},{"id":32991,"uuid":"5308861f-42d2-41b0-9f68-9cb76040638e","name":"Grajewo","default_address":{"address":"ul. Popiełuszki","full_address":"ul. Popiełuszki, 19-200 Grajewo, Poland","coordinates":{"latitude":53.646410441882,"longitude":22.452288416133}},"address":"ul. Popiełuszki","full_address":"ul. Popiełuszki, 19-200 Grajewo, Poland","coordinates":{"latitude":53.646410441882,"longitude":22.452288416133}},{"id":32981,"uuid":"a5f33a0a-2ff9-4907-9f2a-6e6ae238717c","name":"Ełk","default_address":{"address":"Jarosława Dąbrowskiego","full_address":"Jarosława Dąbrowskiego, 19-311 Elk, Poland","coordinates":{"latitude":53.825298116801,"longitude":22.360769212246}},"address":"Jarosława Dąbrowskiego","full_address":"Jarosława Dąbrowskiego, 19-311 Elk, Poland","coordinates":{"latitude":53.825298116801,"longitude":22.360769212246}},{"id":33021,"uuid":"c3f20e88-0583-4a4e-a4b2-8e845ef72212","name":"Augustów, Wojska Polskiego, Orlen/Kaufland","default_address":{"address":"Wojska Polskiego 53, 16-300 Augustów","full_address":"Wojska Polskiego 53, 16-300 Augustów, 16-300 Augustów, Poland","coordinates":{"latitude":53.837979168634,"longitude":22.973082721635}},"address":"Wojska Polskiego 53, 16-300 Augustów","full_address":"Wojska Polskiego 53, 16-300 Augustów, 16-300 Augustów, Poland","coordinates":{"latitude":53.837979168634,"longitude":22.973082721635}},{"id":33031,"uuid":"d7d2a0fc-af68-4591-84c1-7d7bf5871f8e","name":"Augustów, ul.29 Listopada, Dom Nauczyciela/Fregata","default_address":{"address":"ul. 29 Listopada 4","full_address":"ul. 29 Listopada 4, 16-300 Augustów, Poland","coordinates":{"latitude":53.844741911206,"longitude":22.996572824111}},"address":"ul. 29 Listopada 4","full_address":"ul. 29 Listopada 4, 16-300 Augustów, Poland","coordinates":{"latitude":53.844741911206,"longitude":22.996572824111}},{"id":33011,"uuid":"3fe75e60-5d24-41d8-a369-9c5fe544feee","name":"Suwałki, Dworzec Autobusowy","default_address":{"address":"ul. Utrata 1b","full_address":"ul. Utrata 1b, 16-402 Suwalki, Poland","coordinates":{"latitude":54.105204125114,"longitude":22.938839300152}},"address":"ul. Utrata 1b","full_address":"ul. Utrata 1b, 16-402 Suwalki, Poland","coordinates":{"latitude":54.105204125114,"longitude":22.938839300152}}],"ride_id":139825121,"trip_uid":"direct:139825121:10768:33011","has_tracker":false,"is_cancelled":false,"line_code":"ŻakExpress (K321)","direction":"Suwałki, Dworzec Autobusowy"},{"through_the_stations":"Warsaw Centrum → Warsaw West → Warszawa, Lotnisko Chopina","datetime":{"timestamp":1624537380,"tz":"GMT+02:00"},"line_direction":"Route ŻakExpress (K318) direction Warszawa, Lotnisko Chopina","route":[{"id":10768,"uuid":"dcc4c5ea-9603-11e6-9066-549f350fcb0c","name":"Warsaw Centrum","default_address":{"address":"ul. Marszałkowska 104/122","full_address":"ul. Marszałkowska 104/122, 00-017 Warszawa, Poland","coordinates":{"latitude":52.231858,"longitude":21.010823}},"address":"ul. Marszałkowska 104/122","full_address":"ul. Marszałkowska 104/122, 00-017 Warszawa, Poland","coordinates":{"latitude":52.231858,"longitude":21.010823}},{"id":10118,"uuid":"dcc454ac-9603-11e6-9066-549f350fcb0c","name":"Warsaw West","default_address":{"address":"Aleje Jerozolimskie 144","full_address":"Aleje Jerozolimskie 144, 02-303 Warszawa, Poland","coordinates":{"latitude":52.218398,"longitude":20.961755}},"address":"Aleje Jerozolimskie 144","full_address":"Aleje Jerozolimskie 144, 02-303 Warszawa, Poland","coordinates":{"latitude":52.218398,"longitude":20.961755}},{"id":9438,"uuid":"dcc3e708-9603-11e6-9066-549f350fcb0c","name":"Warszawa, Lotnisko Chopina","default_address":{"address":"ul. Żwirki i Wigury 1","full_address":"ul. Żwirki i Wigury 1, 00-906 Warszawa, Poland","coordinates":{"latitude":52.1692406,"longitude":20.9742722}},"address":"ul. Żwirki i Wigury 1","full_address":"ul. Żwirki i Wigury 1, 00-906 Warszawa, Poland","coordinates":{"latitude":52.1692406,"longitude":20.9742722}}],"ride_id":139819391,"trip_uid":"direct:139819391:10768:9438","has_tracker":false,"is_cancelled":false,"line_code":"ŻakExpress (K318)","direction":"Warszawa, Lotnisko Chopina"},{"through_the_stations":"Warsaw Centrum → Warsaw West → Warszawa, Lotnisko Chopina","datetime":{"timestamp":1624538460,"tz":"GMT+02:00"},"line_direction":"Route ŻakExpress (K321) direction Warszawa, Lotnisko Chopina","route":[{"id":10768,"uuid":"dcc4c5ea-9603-11e6-9066-549f350fcb0c","name":"Warsaw Centrum","default_address":{"address":"ul. Marszałkowska 104/122","full_address":"ul. Marszałkowska 104/122, 00-017 Warszawa, Poland","coordinates":{"latitude":52.231858,"longitude":21.010823}},"address":"ul. Marszałkowska 104/122","full_address":"ul. Marszałkowska 104/122, 00-017 Warszawa, Poland","coordinates":{"latitude":52.231858,"longitude":21.010823}},{"id":10118,"uuid":"dcc454ac-9603-11e6-9066-549f350fcb0c","name":"Warsaw West","default_address":{"address":"Aleje Jerozolimskie 144","full_address":"Aleje Jerozolimskie 144, 02-303 Warszawa, Poland","coordinates":{"latitude":52.218398,"longitude":20.961755}},"address":"Aleje Jerozolimskie 144","full_address":"Aleje Jerozolimskie 144, 02-303 Warszawa, Poland","coordinates":{"latitude":52.218398,"longitude":20.961755}},{"id":9438,"uuid":"dcc3e708-9603-11e6-9066-549f350fcb0c","name":"Warszawa, Lotnisko Chopina","default_address":{"address":"ul. Żwirki i Wigury 1","full_address":"ul. Żwirki i Wigury 1, 00-906 Warszawa, Poland","coordinates":{"latitude":52.1692406,"longitude":20.9742722}},"address":"ul. Żwirki i Wigury 1","full_address":"ul. Żwirki i Wigury 1, 00-906 Warszawa, Poland","coordinates":{"latitude":52.1692406,"longitude":20.9742722}}],"ride_id":139825061,"trip_uid":"direct:139825061:10768:9438","has_tracker":false,"is_cancelled":false,"line_code":"ŻakExpress (K321)","direction":"Warszawa, Lotnisko Chopina"},{"through_the_stations":"Warsaw Centrum → Białystok, Dworzec Autobusowy","datetime":{"timestamp":1624542900,"tz":"GMT+02:00"},"line_direction":"Route ŻakExpress (K318) direction Białystok, Dworzec Autobusowy","route":[{"id":10768,"uuid":"dcc4c5ea-9603-11e6-9066-549f350fcb0c","name":"Warsaw Centrum","default_address":{"address":"ul. Marszałkowska 104/122","full_address":"ul. Marszałkowska 104/122, 00-017 Warszawa, Poland","coordinates":{"latitude":52.231858,"longitude":21.010823}},"address":"ul. Marszałkowska 104/122","full_address":"ul. Marszałkowska 104/122, 00-017 Warszawa, Poland","coordinates":{"latitude":52.231858,"longitude":21.010823}},{"id":33081,"uuid":"e383decd-d064-423a-ab3b-600e6023edde","name":"Białystok, Dworzec Autobusowy","default_address":{"address":"ul. Bohaterów Monte Cassino 8","full_address":"ul. Bohaterów Monte Cassino 8, 15-873 Bialystok, Poland","coordinates":{"latitude":53.132833,"longitude":23.135389}},"address":"ul. Bohaterów Monte Cassino 8","full_address":"ul. Bohaterów Monte Cassino 8, 15-873 Bialystok, Poland","coordinates":{"latitude":53.132833,"longitude":23.135389}}],"ride_id":139819341,"trip_uid":"direct:139819341:10768:33081","has_tracker":false,"is_cancelled":false,"line_code":"ŻakExpress (K318)","direction":"Białystok, Dworzec Autobusowy"},{"through_the_stations":"Warsaw Centrum → Łomża, Dworzec Autobusowy → Grajewo → Ełk → Augustów, Wojska Polskiego, Orlen/Kaufland → Augustów, ul.29 Listopada, Dom Nauczyciela/Fregata → Suwałki, Dworzec Autobusowy","datetime":{"timestamp":1624543500,"tz":"GMT+02:00"},"line_direction":"Route ŻakExpress (K321) direction Suwałki, Dworzec Autobusowy","route":[{"id":10768,"uuid":"dcc4c5ea-9603-11e6-9066-549f350fcb0c","name":"Warsaw Centrum","default_address":{"address":"ul. Marszałkowska 104/122","full_address":"ul. Marszałkowska 104/122, 00-017 Warszawa, Poland","coordinates":{"latitude":52.231858,"longitude":21.010823}},"address":"ul. Marszałkowska 104/122","full_address":"ul. Marszałkowska 104/122, 00-017 Warszawa, Poland","coordinates":{"latitude":52.231858,"longitude":21.010823}},{"id":33001,"uuid":"1d8d0969-292a-490d-8a5c-9061a22619aa","name":"Łomża, Dworzec Autobusowy","default_address":{"address":"ul. Dworcowa 4","full_address":"ul. Dworcowa 4, 18-400 Łomża, Poland","coordinates":{"latitude":53.172725184419,"longitude":22.06705665096}},"address":"ul. Dworcowa 4","full_address":"ul. Dworcowa 4, 18-400 Łomża, Poland","coordinates":{"latitude":53.172725184419,"longitude":22.06705665096}},{"id":32991,"uuid":"5308861f-42d2-41b0-9f68-9cb76040638e","name":"Grajewo","default_address":{"address":"ul. Popiełuszki","full_address":"ul. Popiełuszki, 19-200 Grajewo, Poland","coordinates":{"latitude":53.646410441882,"longitude":22.452288416133}},"address":"ul. Popiełuszki","full_address":"ul. Popiełuszki, 19-200 Grajewo, Poland","coordinates":{"latitude":53.646410441882,"longitude":22.452288416133}},{"id":32981,"uuid":"a5f33a0a-2ff9-4907-9f2a-6e6ae238717c","name":"Ełk","default_address":{"address":"Jarosława Dąbrowskiego","full_address":"Jarosława Dąbrowskiego, 19-311 Elk, Poland","coordinates":{"latitude":53.825298116801,"longitude":22.360769212246}},"address":"Jarosława Dąbrowskiego","full_address":"Jarosława Dąbrowskiego, 19-311 Elk, Poland","coordinates":{"latitude":53.825298116801,"longitude":22.360769212246}},{"id":33021,"uuid":"c3f20e88-0583-4a4e-a4b2-8e845ef72212","name":"Augustów, Wojska Polskiego, Orlen/Kaufland","default_address":{"address":"Wojska Polskiego 53, 16-300 Augustów","full_address":"Wojska Polskiego 53, 16-300 Augustów, 16-300 Augustów, Poland","coordinates":{"latitude":53.837979168634,"longitude":22.973082721635}},"address":"Wojska Polskiego 53, 16-300 Augustów","full_address":"Wojska Polskiego 53, 16-300 Augustów, 16-300 Augustów, Poland","coordinates":{"latitude":53.837979168634,"longitude":22.973082721635}},{"id":33031,"uuid":"d7d2a0fc-af68-4591-84c1-7d7bf5871f8e","name":"Augustów, ul.29 Listopada, Dom Nauczyciela/Fregata","default_address":{"address":"ul. 29 Listopada 4","full_address":"ul. 29 Listopada 4, 16-300 Augustów, Poland","coordinates":{"latitude":53.844741911206,"longitude":22.996572824111}},"address":"ul. 29 Listopada 4","full_address":"ul. 29 Listopada 4, 16-300 Augustów, Poland","coordinates":{"latitude":53.844741911206,"longitude":22.996572824111}},{"id":33011,"uuid":"3fe75e60-5d24-41d8-a369-9c5fe544feee","name":"Suwałki, Dworzec Autobusowy","default_address":{"address":"ul. Utrata 1b","full_address":"ul. Utrata 1b, 16-402 Suwalki, Poland","coordinates":{"latitude":54.105204125114,"longitude":22.938839300152}},"address":"ul. Utrata 1b","full_address":"ul. Utrata 1b, 16-402 Suwalki, Poland","coordinates":{"latitude":54.105204125114,"longitude":22.938839300152}}],"ride_id":139825171,"trip_uid":"direct:139825171:10768:33011","has_tracker":false,"is_cancelled":false,"line_code":"ŻakExpress (K321)","direction":"Suwałki, Dworzec Autobusowy"},{"through_the_stations":"Warsaw Centrum → Warsaw West → Warszawa, Lotnisko Chopina","datetime":{"timestamp":1624548960,"tz":"GMT+02:00"},"line_direction":"Route ŻakExpress (K321) direction Warszawa, Lotnisko Chopina","route":[{"id":10768,"uuid":"dcc4c5ea-9603-11e6-9066-549f350fcb0c","name":"Warsaw Centrum","default_address":{"address":"ul. Marszałkowska 104/122","full_address":"ul. Marszałkowska 104/122, 00-017 Warszawa, Poland","coordinates":{"latitude":52.231858,"longitude":21.010823}},"address":"ul. Marszałkowska 104/122","full_address":"ul. Marszałkowska 104/122, 00-017 Warszawa, Poland","coordinates":{"latitude":52.231858,"longitude":21.010823}},{"id":10118,"uuid":"dcc454ac-9603-11e6-9066-549f350fcb0c","name":"Warsaw West","default_address":{"address":"Aleje Jerozolimskie 144","full_address":"Aleje Jerozolimskie 144, 02-303 Warszawa, Poland","coordinates":{"latitude":52.218398,"longitude":20.961755}},"address":"Aleje Jerozolimskie 144","full_address":"Aleje Jerozolimskie 144, 02-303 Warszawa, Poland","coordinates":{"latitude":52.218398,"longitude":20.961755}},{"id":9438,"uuid":"dcc3e708-9603-11e6-9066-549f350fcb0c","name":"Warszawa, Lotnisko Chopina","default_address":{"address":"ul. Żwirki i Wigury 1","full_address":"ul. Żwirki i Wigury 1, 00-906 Warszawa, Poland","coordinates":{"latitude":52.1692406,"longitude":20.9742722}},"address":"ul. Żwirki i Wigury 1","full_address":"ul. Żwirki i Wigury 1, 00-906 Warszawa, Poland","coordinates":{"latitude":52.1692406,"longitude":20.9742722}}],"ride_id":139824971,"trip_uid":"direct:139824971:10768:9438","has_tracker":false,"is_cancelled":false,"line_code":"ŻakExpress (K321)","direction":"Warszawa, Lotnisko Chopina"},{"through_the_stations":"Warsaw Centrum → Łomża, Dworzec Autobusowy → Grajewo → Ełk → Augustów, Wojska Polskiego, Orlen/Kaufland → Augustów, ul.29 Listopada, Dom Nauczyciela/Fregata→ Suwałki, Dworzec Autobusowy","datetime":{"timestamp":1624549200,"tz":"GMT+02:00"},"line_direction":"Route ŻakExpress (K321) direction Suwałki, Dworzec Autobusowy","route":[{"id":10768,"uuid":"dcc4c5ea-9603-11e6-9066-549f350fcb0c","name":"Warsaw Centrum","default_address":{"address":"ul. Marszałkowska 104/122","full_address":"ul. Marszałkowska 104/122, 00-017 Warszawa, Poland","coordinates":{"latitude":52.231858,"longitude":21.010823}},"address":"ul. Marszałkowska 104/122","full_address":"ul. Marszałkowska 104/122, 00-017 Warszawa, Poland","coordinates":{"latitude":52.231858,"longitude":21.010823}},{"id":33001,"uuid":"1d8d0969-292a-490d-8a5c-9061a22619aa","name":"Łomża, Dworzec Autobusowy","default_address":{"address":"ul. Dworcowa 4","full_address":"ul. Dworcowa 4, 18-400 Łomża, Poland","coordinates":{"latitude":53.172725184419,"longitude":22.06705665096}},"address":"ul. Dworcowa 4","full_address":"ul. Dworcowa 4, 18-400 Łomża, Poland","coordinates":{"latitude":53.172725184419,"longitude":22.06705665096}},{"id":32991,"uuid":"5308861f-42d2-41b0-9f68-9cb76040638e","name":"Grajewo","default_address":{"address":"ul. Popiełuszki","full_address":"ul. Popiełuszki, 19-200 Grajewo, Poland","coordinates":{"latitude":53.646410441882,"longitude":22.452288416133}},"address":"ul. Popiełuszki","full_address":"ul. Popiełuszki, 19-200 Grajewo, Poland","coordinates":{"latitude":53.646410441882,"longitude":22.452288416133}},{"id":32981,"uuid":"a5f33a0a-2ff9-4907-9f2a-6e6ae238717c","name":"Ełk","default_address":{"address":"Jarosława Dąbrowskiego","full_address":"Jarosława Dąbrowskiego, 19-311 Elk, Poland","coordinates":{"latitude":53.825298116801,"longitude":22.360769212246}},"address":"Jarosława Dąbrowskiego","full_address":"Jarosława Dąbrowskiego, 19-311 Elk, Poland","coordinates":{"latitude":53.825298116801,"longitude":22.360769212246}},{"id":33021,"uuid":"c3f20e88-0583-4a4e-a4b2-8e845ef72212","name":"Augustów, Wojska Polskiego, Orlen/Kaufland","default_address":{"address":"Wojska Polskiego 53, 16-300 Augustów","full_address":"Wojska Polskiego 53, 16-300 Augustów, 16-300 Augustów, Poland","coordinates":{"latitude":53.837979168634,"longitude":22.973082721635}},"address":"Wojska Polskiego 53, 16-300 Augustów","full_address":"Wojska Polskiego 53, 16-300 Augustów, 16-300 Augustów, Poland","coordinates":{"latitude":53.837979168634,"longitude":22.973082721635}},{"id":33031,"uuid":"d7d2a0fc-af68-4591-84c1-7d7bf5871f8e","name":"Augustów, ul.29 Listopada, Dom Nauczyciela/Fregata","default_address":{"address":"ul. 29 Listopada 4","full_address":"ul. 29 Listopada 4, 16-300 Augustów, Poland","coordinates":{"latitude":53.844741911206,"longitude":22.996572824111}},"address":"ul. 29 Listopada 4","full_address":"ul. 29 Listopada 4, 16-300 Augustów, Poland","coordinates":{"latitude":53.844741911206,"longitude":22.996572824111}},{"id":33011,"uuid":"3fe75e60-5d24-41d8-a369-9c5fe544feee","name":"Suwałki, Dworzec Autobusowy","default_address":{"address":"ul. Utrata 1b","full_address":"ul. Utrata 1b, 16-402 Suwalki, Poland","coordinates":{"latitude":54.105204125114,"longitude":22.938839300152}},"address":"ul. Utrata 1b","full_address":"ul. Utrata 1b, 16-402 Suwalki, Poland","coordinates":{"latitude":54.105204125114,"longitude":22.938839300152}}],"ride_id":139825221,"trip_uid":"direct:139825221:10768:33011","has_tracker":false,"is_cancelled":false,"line_code":"ŻakExpress (K321)","direction":"Suwałki, Dworzec Autobusowy"},{"through_the_stations":"Warsaw Centrum → Białystok, Dworzec Autobusowy","datetime":{"timestamp":1624550100,"tz":"GMT+02:00"},"line_direction":"Route ŻakExpress (K318) direction Białystok, Dworzec Autobusowy","route":[{"id":10768,"uuid":"dcc4c5ea-9603-11e6-9066-549f350fcb0c","name":"Warsaw Centrum","default_address":{"address":"ul. Marszałkowska 104/122","full_address":"ul. Marszałkowska 104/122, 00-017 Warszawa, Poland","coordinates":{"latitude":52.231858,"longitude":21.010823}},"address":"ul. Marszałkowska 104/122","full_address":"ul. Marszałkowska 104/122, 00-017 Warszawa, Poland","coordinates":{"latitude":52.231858,"longitude":21.010823}},{"id":33081,"uuid":"e383decd-d064-423a-ab3b-600e6023edde","name":"Białystok, Dworzec Autobusowy","default_address":{"address":"ul. Bohaterów Monte Cassino 8","full_address":"ul. Bohaterów Monte Cassino 8, 15-873 Bialystok, Poland","coordinates":{"latitude":53.132833,"longitude":23.135389}},"address":"ul. Bohaterów Monte Cassino 8","full_address":"ul. Bohaterów Monte Cassino 8, 15-873 Bialystok, Poland","coordinates":{"latitude":53.132833,"longitude":23.135389}}],"ride_id":139819351,"trip_uid":"direct:139819351:10768:33081","has_tracker":false,"is_cancelled":false,"line_code":"ŻakExpress (K318)","direction":"Białystok, Dworzec Autobusowy"},{"through_the_stations":"Warsaw Centrum → Łomża, Dworzec Autobusowy → Grajewo → Ełk → Augustów, Wojska Polskiego, Orlen/Kaufland → Augustów, ul.29 Listopada, Dom Nauczyciela/Fregata → Suwałki, Dworzec Autobusowy","datetime":{"timestamp":1624558200,"tz":"GMT+02:00"},"line_direction":"Route ŻakExpress (K321) direction Suwałki, Dworzec Autobusowy","route":[{"id":10768,"uuid":"dcc4c5ea-9603-11e6-9066-549f350fcb0c","name":"Warsaw Centrum","default_address":{"address":"ul. Marszałkowska 104/122","full_address":"ul. Marszałkowska 104/122, 00-017 Warszawa, Poland","coordinates":{"latitude":52.231858,"longitude":21.010823}},"address":"ul. Marszałkowska 104/122","full_address":"ul. Marszałkowska 104/122, 00-017 Warszawa, Poland","coordinates":{"latitude":52.231858,"longitude":21.010823}},{"id":33001,"uuid":"1d8d0969-292a-490d-8a5c-9061a22619aa","name":"Łomża, Dworzec Autobusowy","default_address":{"address":"ul. Dworcowa 4","full_address":"ul. Dworcowa 4, 18-400 Łomża, Poland","coordinates":{"latitude":53.172725184419,"longitude":22.06705665096}},"address":"ul. Dworcowa 4","full_address":"ul. Dworcowa 4, 18-400 Łomża, Poland","coordinates":{"latitude":53.172725184419,"longitude":22.06705665096}},{"id":32991,"uuid":"5308861f-42d2-41b0-9f68-9cb76040638e","name":"Grajewo","default_address":{"address":"ul. Popiełuszki","full_address":"ul. Popiełuszki, 19-200 Grajewo, Poland","coordinates":{"latitude":53.646410441882,"longitude":22.452288416133}},"address":"ul. Popiełuszki","full_address":"ul. Popiełuszki, 19-200 Grajewo, Poland","coordinates":{"latitude":53.646410441882,"longitude":22.452288416133}},{"id":32981,"uuid":"a5f33a0a-2ff9-4907-9f2a-6e6ae238717c","name":"Ełk","default_address":{"address":"Jarosława Dąbrowskiego","full_address":"Jarosława Dąbrowskiego, 19-311 Elk, Poland","coordinates":{"latitude":53.825298116801,"longitude":22.360769212246}},"address":"Jarosława Dąbrowskiego","full_address":"Jarosława Dąbrowskiego, 19-311 Elk, Poland","coordinates":{"latitude":53.825298116801,"longitude":22.360769212246}},{"id":33021,"uuid":"c3f20e88-0583-4a4e-a4b2-8e845ef72212","name":"Augustów, Wojska Polskiego, Orlen/Kaufland","default_address":{"address":"Wojska Polskiego 53, 16-300 Augustów","full_address":"Wojska Polskiego 53, 16-300 Augustów, 16-300 Augustów, Poland","coordinates":{"latitude":53.837979168634,"longitude":22.973082721635}},"address":"Wojska Polskiego 53, 16-300 Augustów","full_address":"Wojska Polskiego 53, 16-300 Augustów, 16-300 Augustów, Poland","coordinates":{"latitude":53.837979168634,"longitude":22.973082721635}},{"id":33031,"uuid":"d7d2a0fc-af68-4591-84c1-7d7bf5871f8e","name":"Augustów, ul.29 Listopada, Dom Nauczyciela/Fregata","default_address":{"address":"ul. 29 Listopada 4","full_address":"ul. 29 Listopada 4, 16-300 Augustów, Poland","coordinates":{"latitude":53.844741911206,"longitude":22.996572824111}},"address":"ul. 29 Listopada 4","full_address":"ul. 29 Listopada 4, 16-300 Augustów, Poland","coordinates":{"latitude":53.844741911206,"longitude":22.996572824111}},{"id":33011,"uuid":"3fe75e60-5d24-41d8-a369-9c5fe544feee","name":"Suwałki, Dworzec Autobusowy","default_address":{"address":"ul. Utrata 1b","full_address":"ul. Utrata 1b, 16-402 Suwalki, Poland","coordinates":{"latitude":54.105204125114,"longitude":22.938839300152}},"address":"ul. Utrata 1b","full_address":"ul. Utrata 1b, 16-402 Suwalki, Poland","coordinates":{"latitude":54.105204125114,"longitude":22.938839300152}}],"ride_id":139825081,"trip_uid":"direct:139825081:10768:33011","has_tracker":false,"is_cancelled":false,"line_code":"ŻakExpress (K321)","direction":"Suwałki, Dworzec Autobusowy"},{"through_the_stations":"Warsaw Centrum → Łomża, Dworzec Autobusowy → Grajewo → Ełk → Augustów, Wojska Polskiego, Orlen/Kaufland → Augustów, ul.29 Listopada, Dom Nauczyciela/Fregata → Suwałki, Dworzec Autobusowy","datetime":{"timestamp":1624575900,"tz":"GMT+02:00"},"line_direction":"Route ŻakExpress (K321) direction Suwałki, Dworzec Autobusowy","route":[{"id":10768,"uuid":"dcc4c5ea-9603-11e6-9066-549f350fcb0c","name":"Warsaw Centrum","default_address":{"address":"ul. Marszałkowska 104/122","full_address":"ul. Marszałkowska 104/122, 00-017 Warszawa, Poland","coordinates":{"latitude":52.231858,"longitude":21.010823}},"address":"ul. Marszałkowska 104/122","full_address":"ul. Marszałkowska 104/122, 00-017 Warszawa, Poland","coordinates":{"latitude":52.231858,"longitude":21.010823}},{"id":33001,"uuid":"1d8d0969-292a-490d-8a5c-9061a22619aa","name":"Łomża, Dworzec Autobusowy","default_address":{"address":"ul. Dworcowa 4","full_address":"ul. Dworcowa 4, 18-400 Łomża, Poland","coordinates":{"latitude":53.172725184419,"longitude":22.06705665096}},"address":"ul. Dworcowa 4","full_address":"ul. Dworcowa 4, 18-400 Łomża, Poland","coordinates":{"latitude":53.172725184419,"longitude":22.06705665096}},{"id":32991,"uuid":"5308861f-42d2-41b0-9f68-9cb76040638e","name":"Grajewo","default_address":{"address":"ul. Popiełuszki","full_address":"ul. Popiełuszki, 19-200 Grajewo, Poland","coordinates":{"latitude":53.646410441882,"longitude":22.452288416133}},"address":"ul. Popiełuszki","full_address":"ul. Popiełuszki, 19-200 Grajewo, Poland","coordinates":{"latitude":53.646410441882,"longitude":22.452288416133}},{"id":32981,"uuid":"a5f33a0a-2ff9-4907-9f2a-6e6ae238717c","name":"Ełk","default_address":{"address":"Jarosława Dąbrowskiego","full_address":"Jarosława Dąbrowskiego, 19-311 Elk, Poland","coordinates":{"latitude":53.825298116801,"longitude":22.360769212246}},"address":"Jarosława Dąbrowskiego","full_address":"Jarosława Dąbrowskiego, 19-311 Elk, Poland","coordinates":{"latitude":53.825298116801,"longitude":22.360769212246}},{"id":33021,"uuid":"c3f20e88-0583-4a4e-a4b2-8e845ef72212","name":"Augustów, Wojska Polskiego, Orlen/Kaufland","default_address":{"address":"Wojska Polskiego 53, 16-300 Augustów","full_address":"Wojska Polskiego 53, 16-300 Augustów, 16-300 Augustów, Poland","coordinates":{"latitude":53.837979168634,"longitude":22.973082721635}},"address":"Wojska Polskiego 53, 16-300 Augustów","full_address":"Wojska Polskiego 53, 16-300 Augustów, 16-300 Augustów, Poland","coordinates":{"latitude":53.837979168634,"longitude":22.973082721635}},{"id":33031,"uuid":"d7d2a0fc-af68-4591-84c1-7d7bf5871f8e","name":"Augustów, ul.29 Listopada, Dom Nauczyciela/Fregata","default_address":{"address":"ul. 29 Listopada 4","full_address":"ul. 29 Listopada 4, 16-300 Augustów, Poland","coordinates":{"latitude":53.844741911206,"longitude":22.996572824111}},"address":"ul. 29 Listopada 4","full_address":"ul. 29 Listopada 4, 16-300 Augustów, Poland","coordinates":{"latitude":53.844741911206,"longitude":22.996572824111}},{"id":33011,"uuid":"3fe75e60-5d24-41d8-a369-9c5fe544feee","name":"Suwałki, Dworzec Autobusowy","default_address":{"address":"ul. Utrata 1b","full_address":"ul. Utrata 1b, 16-402 Suwalki, Poland","coordinates":{"latitude":54.105204125114,"longitude":22.938839300152}},"address":"ul. Utrata 1b","full_address":"ul. Utrata 1b, 16-402 Suwalki, Poland","coordinates":{"latitude":54.105204125114,"longitude":22.938839300152}}],"ride_id":139825601,"trip_uid":"direct:139825601:10768:33011","has_tracker":false,"is_cancelled":false,"line_code":"ŻakExpress (K321)","direction":"Suwałki, Dworzec Autobusowy"},{"through_the_stations":"Warsaw Centrum → Łomża, Dworzec Autobusowy → Grajewo → Ełk → Augustów, Wojska Polskiego, Orlen/Kaufland → Augustów, ul.29 Listopada, Dom Nauczyciela/Fregata → Suwałki, Dworzec Autobusowy","datetime":{"timestamp":1624596000,"tz":"GMT+02:00"},"line_direction":"Route ŻakExpress (K321) direction Suwałki, Dworzec Autobusowy","route":[{"id":10768,"uuid":"dcc4c5ea-9603-11e6-9066-549f350fcb0c","name":"Warsaw Centrum","default_address":{"address":"ul. Marszałkowska 104/122","full_address":"ul. Marszałkowska 104/122, 00-017 Warszawa, Poland","coordinates":{"latitude":52.231858,"longitude":21.010823}},"address":"ul. Marszałkowska 104/122","full_address":"ul. Marszałkowska 104/122, 00-017 Warszawa, Poland","coordinates":{"latitude":52.231858,"longitude":21.010823}},{"id":33001,"uuid":"1d8d0969-292a-490d-8a5c-9061a22619aa","name":"Łomża, Dworzec Autobusowy","default_address":{"address":"ul. Dworcowa 4","full_address":"ul. Dworcowa 4, 18-400 Łomża, Poland","coordinates":{"latitude":53.172725184419,"longitude":22.06705665096}},"address":"ul. Dworcowa 4","full_address":"ul. Dworcowa 4, 18-400 Łomża, Poland","coordinates":{"latitude":53.172725184419,"longitude":22.06705665096}},{"id":32991,"uuid":"5308861f-42d2-41b0-9f68-9cb76040638e","name":"Grajewo","default_address":{"address":"ul. Popiełuszki","full_address":"ul. Popiełuszki, 19-200 Grajewo, Poland","coordinates":{"latitude":53.646410441882,"longitude":22.452288416133}},"address":"ul. Popiełuszki","full_address":"ul. Popiełuszki, 19-200 Grajewo, Poland","coordinates":{"latitude":53.646410441882,"longitude":22.452288416133}},{"id":32981,"uuid":"a5f33a0a-2ff9-4907-9f2a-6e6ae238717c","name":"Ełk","default_address":{"address":"Jarosława Dąbrowskiego","full_address":"Jarosława Dąbrowskiego, 19-311 Elk, Poland","coordinates":{"latitude":53.825298116801,"longitude":22.360769212246}},"address":"Jarosława Dąbrowskiego","full_address":"Jarosława Dąbrowskiego, 19-311 Elk, Poland","coordinates":{"latitude":53.825298116801,"longitude":22.360769212246}},{"id":33021,"uuid":"c3f20e88-0583-4a4e-a4b2-8e845ef72212","name":"Augustów, Wojska Polskiego, Orlen/Kaufland","default_address":{"address":"Wojska Polskiego 53, 16-300 Augustów","full_address":"Wojska Polskiego 53, 16-300 Augustów, 16-300 Augustów, Poland","coordinates":{"latitude":53.837979168634,"longitude":22.973082721635}},"address":"Wojska Polskiego 53, 16-300 Augustów","full_address":"Wojska Polskiego 53, 16-300 Augustów, 16-300 Augustów, Poland","coordinates":{"latitude":53.837979168634,"longitude":22.973082721635}},{"id":33031,"uuid":"d7d2a0fc-af68-4591-84c1-7d7bf5871f8e","name":"Augustów, ul.29 Listopada, Dom Nauczyciela/Fregata","default_address":{"address":"ul. 29 Listopada 4","full_address":"ul. 29 Listopada 4, 16-300 Augustów, Poland","coordinates":{"latitude":53.844741911206,"longitude":22.996572824111}},"address":"ul. 29 Listopada 4","full_address":"ul. 29 Listopada 4, 16-300 Augustów, Poland","coordinates":{"latitude":53.844741911206,"longitude":22.996572824111}},{"id":33011,"uuid":"3fe75e60-5d24-41d8-a369-9c5fe544feee","name":"Suwałki, Dworzec Autobusowy","default_address":{"address":"ul. Utrata 1b","full_address":"ul. Utrata 1b, 16-402 Suwalki, Poland","coordinates":{"latitude":54.105204125114,"longitude":22.938839300152}},"address":"ul. Utrata 1b","full_address":"ul. Utrata 1b, 16-402 Suwalki, Poland","coordinates":{"latitude":54.105204125114,"longitude":22.938839300152}}],"ride_id":139825321,"trip_uid":"direct:139825321:10768:33011","has_tracker":false,"is_cancelled":false,"line_code":"ŻakExpress (K321)","direction":"Suwałki, Dworzec Autobusowy"},{"through_the_stations":"Warsaw Centrum → Warsaw West → Warszawa, Lotnisko Chopina","datetime":{"timestamp":1624597260,"tz":"GMT+02:00"},"line_direction":"Route ŻakExpress (K321) direction Warszawa, Lotnisko Chopina","route":[{"id":10768,"uuid":"dcc4c5ea-9603-11e6-9066-549f350fcb0c","name":"Warsaw Centrum","default_address":{"address":"ul. Marszałkowska 104/122","full_address":"ul. Marszałkowska 104/122, 00-017 Warszawa, Poland","coordinates":{"latitude":52.231858,"longitude":21.010823}},"address":"ul. Marszałkowska 104/122","full_address":"ul. Marszałkowska 104/122, 00-017 Warszawa, Poland","coordinates":{"latitude":52.231858,"longitude":21.010823}},{"id":10118,"uuid":"dcc454ac-9603-11e6-9066-549f350fcb0c","name":"Warsaw West","default_address":{"address":"Aleje Jerozolimskie 144","full_address":"Aleje Jerozolimskie 144, 02-303 Warszawa, Poland","coordinates":{"latitude":52.218398,"longitude":20.961755}},"address":"Aleje Jerozolimskie 144","full_address":"Aleje Jerozolimskie 144, 02-303 Warszawa, Poland","coordinates":{"latitude":52.218398,"longitude":20.961755}},{"id":9438,"uuid":"dcc3e708-9603-11e6-9066-549f350fcb0c","name":"Warszawa, Lotnisko Chopina","default_address":{"address":"ul. Żwirki i Wigury 1","full_address":"ul. Żwirki i Wigury 1, 00-906 Warszawa, Poland","coordinates":{"latitude":52.1692406,"longitude":20.9742722}},"address":"ul. Żwirki i Wigury 1","full_address":"ul. Żwirki i Wigury 1, 00-906 Warszawa, Poland","coordinates":{"latitude":52.1692406,"longitude":20.9742722}}],"ride_id":139825481,"trip_uid":"direct:139825481:10768:9438","has_tracker":false,"is_cancelled":false,"line_code":"ŻakExpress (K321)","direction":"Warszawa, Lotnisko Chopina"},{"through_the_stations":"Warsaw Centrum → Warsaw West → Warszawa, Lotnisko Chopina","datetime":{"timestamp":1624602180,"tz":"GMT+02:00"},"line_direction":"Route ŻakExpress (K318) direction Warszawa, Lotnisko Chopina","route":[{"id":10768,"uuid":"dcc4c5ea-9603-11e6-9066-549f350fcb0c","name":"Warsaw Centrum","default_address":{"address":"ul. Marszałkowska 104/122","full_address":"ul. Marszałkowska 104/122, 00-017 Warszawa, Poland","coordinates":{"latitude":52.231858,"longitude":21.010823}},"address":"ul. Marszałkowska 104/122","full_address":"ul. Marszałkowska 104/122, 00-017 Warszawa, Poland","coordinates":{"latitude":52.231858,"longitude":21.010823}},{"id":10118,"uuid":"dcc454ac-9603-11e6-9066-549f350fcb0c","name":"Warsaw West","default_address":{"address":"Aleje Jerozolimskie 144","full_address":"Aleje Jerozolimskie 144, 02-303 Warszawa, Poland","coordinates":{"latitude":52.218398,"longitude":20.961755}},"address":"Aleje Jerozolimskie 144","full_address":"Aleje Jerozolimskie 144, 02-303 Warszawa, Poland","coordinates":{"latitude":52.218398,"longitude":20.961755}},{"id":9438,"uuid":"dcc3e708-9603-11e6-9066-549f350fcb0c","name":"Warszawa, Lotnisko Chopina","default_address":{"address":"ul. Żwirki i Wigury 1","full_address":"ul. Żwirki i Wigury 1, 00-906 Warszawa, Poland","coordinates":{"latitude":52.1692406,"longitude":20.9742722}},"address":"ul. Żwirki i Wigury 1","full_address":"ul. Żwirki i Wigury 1, 00-906 Warszawa, Poland","coordinates":{"latitude":52.1692406,"longitude":20.9742722}}],"ride_id":139819511,"trip_uid":"direct:139819511:10768:9438","has_tracker":false,"is_cancelled":false,"line_code":"ŻakExpress (K318)","direction":"Warszawa, Lotnisko Chopina"},{"through_the_stations":"Warsaw Centrum → Warsaw West → Warszawa, Lotnisko Chopina","datetime":{"timestamp":1624606260,"tz":"GMT+02:00"},"line_direction":"Route ŻakExpress (K321) direction Warszawa, Lotnisko Chopina","route":[{"id":10768,"uuid":"dcc4c5ea-9603-11e6-9066-549f350fcb0c","name":"Warsaw Centrum","default_address":{"address":"ul. Marszałkowska 104/122","full_address":"ul. Marszałkowska 104/122, 00-017 Warszawa, Poland","coordinates":{"latitude":52.231858,"longitude":21.010823}},"address":"ul. Marszałkowska 104/122","full_address":"ul. Marszałkowska 104/122, 00-017 Warszawa, Poland","coordinates":{"latitude":52.231858,"longitude":21.010823}},{"id":10118,"uuid":"dcc454ac-9603-11e6-9066-549f350fcb0c","name":"Warsaw West","default_address":{"address":"Aleje Jerozolimskie 144","full_address":"Aleje Jerozolimskie 144, 02-303 Warszawa, Poland","coordinates":{"latitude":52.218398,"longitude":20.961755}},"address":"Aleje Jerozolimskie 144","full_address":"Aleje Jerozolimskie 144, 02-303 Warszawa, Poland","coordinates":{"latitude":52.218398,"longitude":20.961755}},{"id":9438,"uuid":"dcc3e708-9603-11e6-9066-549f350fcb0c","name":"Warszawa, Lotnisko Chopina","default_address":{"address":"ul. Żwirki i Wigury 1","full_address":"ul. Żwirki i Wigury 1, 00-906 Warszawa, Poland","coordinates":{"latitude":52.1692406,"longitude":20.9742722}},"address":"ul. Żwirki i Wigury 1","full_address":"ul. Żwirki i Wigury 1, 00-906 Warszawa, Poland","coordinates":{"latitude":52.1692406,"longitude":20.9742722}}],"ride_id":139825531,"trip_uid":"direct:139825531:10768:9438","has_tracker":false,"is_cancelled":false,"line_code":"ŻakExpress (K321)","direction":"Warszawa, Lotnisko Chopina"},{"through_the_stations":"Warsaw Centrum → Łomża, Dworzec Autobusowy → Grajewo → Ełk → Augustów, Wojska Polskiego, Orlen/Kaufland → Augustów, ul.29 Listopada, Dom Nauczyciela/Fregata → Suwałki, Dworzec Autobusowy","datetime":{"timestamp":1624608600,"tz":"GMT+02:00"},"line_direction":"Route ŻakExpress (K321) direction Suwałki, Dworzec Autobusowy","route":[{"id":10768,"uuid":"dcc4c5ea-9603-11e6-9066-549f350fcb0c","name":"Warsaw Centrum","default_address":{"address":"ul. Marszałkowska 104/122","full_address":"ul. Marszałkowska 104/122, 00-017 Warszawa, Poland","coordinates":{"latitude":52.231858,"longitude":21.010823}},"address":"ul. Marszałkowska 104/122","full_address":"ul. Marszałkowska 104/122, 00-017 Warszawa, Poland","coordinates":{"latitude":52.231858,"longitude":21.010823}},{"id":33001,"uuid":"1d8d0969-292a-490d-8a5c-9061a22619aa","name":"Łomża, Dworzec Autobusowy","default_address":{"address":"ul. Dworcowa 4","full_address":"ul. Dworcowa 4, 18-400 Łomża, Poland","coordinates":{"latitude":53.172725184419,"longitude":22.06705665096}},"address":"ul. Dworcowa 4","full_address":"ul. Dworcowa 4, 18-400 Łomża, Poland","coordinates":{"latitude":53.172725184419,"longitude":22.06705665096}},{"id":32991,"uuid":"5308861f-42d2-41b0-9f68-9cb76040638e","name":"Grajewo","default_address":{"address":"ul. Popiełuszki","full_address":"ul. Popiełuszki, 19-200 Grajewo, Poland","coordinates":{"latitude":53.646410441882,"longitude":22.452288416133}},"address":"ul. Popiełuszki","full_address":"ul. Popiełuszki, 19-200 Grajewo, Poland","coordinates":{"latitude":53.646410441882,"longitude":22.452288416133}},{"id":32981,"uuid":"a5f33a0a-2ff9-4907-9f2a-6e6ae238717c","name":"Ełk","default_address":{"address":"Jarosława Dąbrowskiego","full_address":"Jarosława Dąbrowskiego, 19-311 Elk, Poland","coordinates":{"latitude":53.825298116801,"longitude":22.360769212246}},"address":"Jarosława Dąbrowskiego","full_address":"Jarosława Dąbrowskiego, 19-311 Elk, Poland","coordinates":{"latitude":53.825298116801,"longitude":22.360769212246}},{"id":33021,"uuid":"c3f20e88-0583-4a4e-a4b2-8e845ef72212","name":"Augustów, Wojska Polskiego, Orlen/Kaufland","default_address":{"address":"Wojska Polskiego 53, 16-300 Augustów","full_address":"Wojska Polskiego 53, 16-300 Augustów, 16-300 Augustów, Poland","coordinates":{"latitude":53.837979168634,"longitude":22.973082721635}},"address":"Wojska Polskiego 53, 16-300 Augustów","full_address":"Wojska Polskiego 53, 16-300 Augustów, 16-300 Augustów, Poland","coordinates":{"latitude":53.837979168634,"longitude":22.973082721635}},{"id":33031,"uuid":"d7d2a0fc-af68-4591-84c1-7d7bf5871f8e","name":"Augustów, ul.29 Listopada, Dom Nauczyciela/Fregata","default_address":{"address":"ul. 29 Listopada 4","full_address":"ul. 29 Listopada 4, 16-300 Augustów, Poland","coordinates":{"latitude":53.844741911206,"longitude":22.996572824111}},"address":"ul. 29 Listopada 4","full_address":"ul. 29 Listopada 4, 16-300 Augustów, Poland","coordinates":{"latitude":53.844741911206,"longitude":22.996572824111}},{"id":33011,"uuid":"3fe75e60-5d24-41d8-a369-9c5fe544feee","name":"Suwałki, Dworzec Autobusowy","default_address":{"address":"ul. Utrata 1b","full_address":"ul. Utrata 1b, 16-402 Suwalki, Poland","coordinates":{"latitude":54.105204125114,"longitude":22.938839300152}},"address":"ul. Utrata 1b","full_address":"ul. Utrata 1b, 16-402 Suwalki, Poland","coordinates":{"latitude":54.105204125114,"longitude":22.938839300152}}],"ride_id":139825371,"trip_uid":"direct:139825371:10768:33011","has_tracker":false,"is_cancelled":false,"line_code":"ŻakExpress (K321)","direction":"Suwałki, Dworzec Autobusowy"}],"message":""},"station":{"id":10768,"uuid":"dcc4c5ea-9603-11e6-9066-549f350fcb0c","name":"Warsaw Centrum","default_address":{"address":"ul. Marszałkowska 104/122","full_address":"ul. Marszałkowska 104/122, 00-017 Warszawa, Polen","coordinates":{"latitude":52.231858,"longitude":21.010823}},"address":"ul. Marszałkowska 104/122","full_address":"ul. Marszałkowska 104/122, 00-017 Warszawa, Polen","coordinates":{"latitude":52.231858,"longitude":21.010823}}}