{"schedule":{"arrivals":[{"through_the_stations":"Hrubieszów, Piłsudskiego, Stokrotka → Werbkowice, ul. Zamojska → Zamość, ul. Lwowska → Zamość, ul. Partyzantów → Krasnystaw, dw.aut. → Świdnik, Kalinówka S12 → Lublin, Dworzec Autobusowy → Warszawa, Stadion Narodowy","datetime":{"timestamp":1624536240,"tz":"GMT+02:00"},"line_direction":"Route 1320 direction Berlin central bus station","route":[{"id":56681,"uuid":"9b6a6366-3ecb-11ea-8017-02437075395e","name":"Hrubieszów, Piłsudskiego, Stokrotka","default_address":{"address":"Marszałka Józefa Piłsudskiego 55","full_address":"Marszałka Józefa Piłsudskiego 55, 22-500 Hrubieszów, Poland","coordinates":{"latitude":50.803584,"longitude":23.899246}},"address":"Marszałka Józefa Piłsudskiego 55","full_address":"Marszałka Józefa Piłsudskiego 55, 22-500 Hrubieszów, Poland","coordinates":{"latitude":50.803584,"longitude":23.899246}},{"id":56161,"uuid":"9b6a85ae-3ecb-11ea-8017-02437075395e","name":"Werbkowice, ul. Zamojska","default_address":{"address":"ul. Zamojska","full_address":"ul. Zamojska, 22-550 Werbkowice, Poland","coordinates":{"latitude":50.75381479811824,"longitude":23.764018145643085}},"address":"ul. Zamojska","full_address":"ul. Zamojska, 22-550 Werbkowice, Poland","coordinates":{"latitude":50.75381479811824,"longitude":23.764018145643085}},{"id":56691,"uuid":"9b6aff1b-3ecb-11ea-8017-02437075395e","name":"Zamość, ul. Lwowska","default_address":{"address":"Lwowska 20","full_address":"Lwowska 20, 22-400 Zamość, Poland","coordinates":{"latitude":50.7081026,"longitude":23.2796728}},"address":"Lwowska 20","full_address":"Lwowska 20, 22-400 Zamość, Poland","coordinates":{"latitude":50.7081026,"longitude":23.2796728}},{"id":56701,"uuid":"9b6a7f6a-3ecb-11ea-8017-02437075395e","name":"Zamość, ul. Partyzantów","default_address":{"address":"ul. Partyzantów 6","full_address":"ul. Partyzantów 6, 22-400 Zamość, Poland","coordinates":{"latitude":50.715551170412176,"longitude":23.257469236850742}},"address":"ul. Partyzantów 6","full_address":"ul. Partyzantów 6, 22-400 Zamość, Poland","coordinates":{"latitude":50.715551170412176,"longitude":23.257469236850742}},{"id":56651,"uuid":"9b6a6348-3ecb-11ea-8017-02437075395e","name":"Krasnystaw, dw.aut.","default_address":{"address":"Kościuszki 13, 22-300 Krasnystaw","full_address":"Kościuszki 13, 22-300 Krasnystaw, 22-300 Krasnystaw, Poland","coordinates":{"latitude":50.986239,"longitude":23.171599}},"address":"Kościuszki 13, 22-300 Krasnystaw","full_address":"Kościuszki 13, 22-300 Krasnystaw, 22-300 Krasnystaw, Poland","coordinates":{"latitude":50.986239,"longitude":23.171599}},{"id":56671,"uuid":"9b6a632b-3ecb-11ea-8017-02437075395e","name":"Świdnik, Kalinówka S12","default_address":{"address":"S12","full_address":"S12, 21-040 Świdnik, Poland","coordinates":{"latitude":51.200665981927926,"longitude":22.67579356785767}},"address":"S12","full_address":"S12, 21-040 Świdnik, Poland","coordinates":{"latitude":51.200665981927926,"longitude":22.67579356785767}},{"id":23538,"uuid":"deff7f45-3d10-4bb0-a5bd-7ddc327d9f41","name":"Lublin, Dworzec Autobusowy","default_address":{"address":"6 Aleja Tysiąclecia","full_address":"6 Aleja Tysiąclecia, 20-121 Lublin, Poland","coordinates":{"latitude":51.251830458875,"longitude":22.57154095226}},"address":"6 Aleja Tysiąclecia","full_address":"6 Aleja Tysiąclecia, 20-121 Lublin, Poland","coordinates":{"latitude":51.251830458875,"longitude":22.57154095226}},{"id":56101,"uuid":"9b6aeae7-3ecb-11ea-8017-02437075395e","name":"Warszawa, Stadion Narodowy","default_address":{"address":"ul. Sokola","full_address":"ul. Sokola, 05-077 Warszawa, Poland","coordinates":{"latitude":52.246066,"longitude":21.043332}},"address":"ul. Sokola","full_address":"ul. Sokola, 05-077 Warszawa, Poland","coordinates":{"latitude":52.246066,"longitude":21.043332}}],"ride_id":131112631,"trip_uid":"direct:131112631:56681:56101","has_tracker":false,"is_cancelled":false,"line_code":"L1320","direction":"Berlin central bus station"},{"through_the_stations":"Warszawa, Lotnisko Chopina → Warsaw West → Warszawa, Stadion Narodowy","datetime":{"timestamp":1624551900,"tz":"GMT+02:00"},"line_direction":"Route 1240 direction Lublin, Dworzec Autobusowy","route":[{"id":9438,"uuid":"dcc3e708-9603-11e6-9066-549f350fcb0c","name":"Warszawa, Lotnisko Chopina","default_address":{"address":"ul. Żwirki i Wigury 1","full_address":"ul. Żwirki i Wigury 1, 00-906 Warszawa, Poland","coordinates":{"latitude":52.1692406,"longitude":20.9742722}},"address":"ul. Żwirki i Wigury 1","full_address":"ul. Żwirki i Wigury 1, 00-906 Warszawa, Poland","coordinates":{"latitude":52.1692406,"longitude":20.9742722}},{"id":10118,"uuid":"dcc454ac-9603-11e6-9066-549f350fcb0c","name":"Warsaw West","default_address":{"address":"Aleje Jerozolimskie 144","full_address":"Aleje Jerozolimskie 144, 02-303 Warszawa, Poland","coordinates":{"latitude":52.218398,"longitude":20.961755}},"address":"Aleje Jerozolimskie 144","full_address":"Aleje Jerozolimskie 144, 02-303 Warszawa, Poland","coordinates":{"latitude":52.218398,"longitude":20.961755}},{"id":56101,"uuid":"9b6aeae7-3ecb-11ea-8017-02437075395e","name":"Warszawa, Stadion Narodowy","default_address":{"address":"ul. Sokola","full_address":"ul. Sokola, 05-077 Warszawa, Poland","coordinates":{"latitude":52.246066,"longitude":21.043332}},"address":"ul. Sokola","full_address":"ul. Sokola, 05-077 Warszawa, Poland","coordinates":{"latitude":52.246066,"longitude":21.043332}}],"ride_id":139716871,"trip_uid":"direct:139716871:9438:56101","has_tracker":false,"is_cancelled":false,"line_code":"L1240","direction":"Lublin, Dworzec Autobusowy"},{"through_the_stations":"Lublin, Dworzec Autobusowy → Warszawa, Stadion Narodowy","datetime":{"timestamp":1624556100,"tz":"GMT+02:00"},"line_direction":"Route 1240 direction Warszawa, Lotnisko Chopina","route":[{"id":23538,"uuid":"deff7f45-3d10-4bb0-a5bd-7ddc327d9f41","name":"Lublin, Dworzec Autobusowy","default_address":{"address":"6 Aleja Tysiąclecia","full_address":"6 Aleja Tysiąclecia, 20-121 Lublin, Poland","coordinates":{"latitude":51.251830458875,"longitude":22.57154095226}},"address":"6 Aleja Tysiąclecia","full_address":"6 Aleja Tysiąclecia, 20-121 Lublin, Poland","coordinates":{"latitude":51.251830458875,"longitude":22.57154095226}},{"id":56101,"uuid":"9b6aeae7-3ecb-11ea-8017-02437075395e","name":"Warszawa, Stadion Narodowy","default_address":{"address":"ul. Sokola","full_address":"ul. Sokola, 05-077 Warszawa, Poland","coordinates":{"latitude":52.246066,"longitude":21.043332}},"address":"ul. Sokola","full_address":"ul. Sokola, 05-077 Warszawa, Poland","coordinates":{"latitude":52.246066,"longitude":21.043332}}],"ride_id":139716861,"trip_uid":"direct:139716861:23538:56101","has_tracker":false,"is_cancelled":false,"line_code":"L1240","direction":"Warszawa, Lotnisko Chopina"}],"departures":[{"through_the_stations":"Warszawa, Stadion Narodowy → Warsaw West → Poznań → Berlin Airport BER, T 1/2 → Berlin Südkreuz → Berlin central bus station","datetime":{"timestamp":1624536300,"tz":"GMT+02:00"},"line_direction":"Route 1320 direction Berlin central bus station","route":[{"id":56101,"uuid":"9b6aeae7-3ecb-11ea-8017-02437075395e","name":"Warszawa, Stadion Narodowy","default_address":{"address":"ul. Sokola","full_address":"ul. Sokola, 05-077 Warszawa, Poland","coordinates":{"latitude":52.246066,"longitude":21.043332}},"address":"ul. Sokola","full_address":"ul. Sokola, 05-077 Warszawa, Poland","coordinates":{"latitude":52.246066,"longitude":21.043332}},{"id":10118,"uuid":"dcc454ac-9603-11e6-9066-549f350fcb0c","name":"Warsaw West","default_address":{"address":"Aleje Jerozolimskie 144","full_address":"Aleje Jerozolimskie 144, 02-303 Warszawa, Poland","coordinates":{"latitude":52.218398,"longitude":20.961755}},"address":"Aleje Jerozolimskie 144","full_address":"Aleje Jerozolimskie 144, 02-303 Warszawa, Poland","coordinates":{"latitude":52.218398,"longitude":20.961755}},{"id":9418,"uuid":"dcc3dad0-9603-11e6-9066-549f350fcb0c","name":"Poznań","default_address":{"address":"ul. Stanislawa Matyi 2","full_address":"ul. Stanislawa Matyi 2, 61-581 Poznań, Poland","coordinates":{"latitude":52.402757,"longitude":16.913948}},"address":"ul. Stanislawa Matyi 2","full_address":"ul. Stanislawa Matyi 2, 61-581 Poznań, Poland","coordinates":{"latitude":52.402757,"longitude":16.913948}},{"id":44061,"uuid":"17483554-a4a8-4dad-b940-b5f56740014f","name":"Berlin Airport BER, T 1/2","default_address":{"address":"Hugo-Junkers-Ring (Busparkplatz B)","full_address":"Hugo-Junkers-Ring (Busparkplatz B), 12529 Schönefeld, Germany","coordinates":{"latitude":52.364540515814,"longitude":13.514171431932}},"address":"Hugo-Junkers-Ring (Busparkplatz B)","full_address":"Hugo-Junkers-Ring (Busparkplatz B), 12529 Schönefeld, Germany","coordinates":{"latitude":52.364540515814,"longitude":13.514171431932}},{"id":481,"uuid":"dcbb994f-9603-11e6-9066-549f350fcb0c","name":"Berlin Südkreuz","default_address":{"address":"Hildegard-Knef-Platz","full_address":"Hildegard-Knef-Platz, 10829 Berlin, Germany","coordinates":{"latitude":52.476050612436865,"longitude":13.36435614186235}},"address":"Hildegard-Knef-Platz","full_address":"Hildegard-Knef-Platz, 10829 Berlin, Germany","coordinates":{"latitude":52.476050612436865,"longitude":13.36435614186235}},{"id":1,"uuid":"dcbaaee6-9603-11e6-9066-549f350fcb0c","name":"Berlin central bus station","default_address":{"address":"Masurenallee 4-6","full_address":"Masurenallee 4-6, 14057 Berlin, Germany","coordinates":{"latitude":52.507171,"longitude":13.279399}},"address":"Masurenallee 4-6","full_address":"Masurenallee 4-6, 14057 Berlin, Germany","coordinates":{"latitude":52.507171,"longitude":13.279399}}],"ride_id":131112631,"trip_uid":"direct:131112631:56101:1","has_tracker":false,"is_cancelled":false,"line_code":"L1320","direction":"Berlin central bus station"},{"through_the_stations":"Warszawa, Stadion Narodowy → Lublin, Dworzec Autobusowy","datetime":{"timestamp":1624551900,"tz":"GMT+02:00"},"line_direction":"Route 1240 direction Lublin, Dworzec Autobusowy","route":[{"id":56101,"uuid":"9b6aeae7-3ecb-11ea-8017-02437075395e","name":"Warszawa, Stadion Narodowy","default_address":{"address":"ul. Sokola","full_address":"ul. Sokola, 05-077 Warszawa, Poland","coordinates":{"latitude":52.246066,"longitude":21.043332}},"address":"ul. Sokola","full_address":"ul. Sokola, 05-077 Warszawa, Poland","coordinates":{"latitude":52.246066,"longitude":21.043332}},{"id":23538,"uuid":"deff7f45-3d10-4bb0-a5bd-7ddc327d9f41","name":"Lublin, Dworzec Autobusowy","default_address":{"address":"6 Aleja Tysiąclecia","full_address":"6 Aleja Tysiąclecia, 20-121 Lublin, Poland","coordinates":{"latitude":51.251830458875,"longitude":22.57154095226}},"address":"6 Aleja Tysiąclecia","full_address":"6 Aleja Tysiąclecia, 20-121 Lublin, Poland","coordinates":{"latitude":51.251830458875,"longitude":22.57154095226}}],"ride_id":139716871,"trip_uid":"direct:139716871:56101:23538","has_tracker":false,"is_cancelled":false,"line_code":"L1240","direction":"Lublin, Dworzec Autobusowy"},{"through_the_stations":"Warszawa, Stadion Narodowy → Warsaw West → Warszawa, Lotnisko Chopina","datetime":{"timestamp":1624556100,"tz":"GMT+02:00"},"line_direction":"Route 1240 direction Warszawa, Lotnisko Chopina","route":[{"id":56101,"uuid":"9b6aeae7-3ecb-11ea-8017-02437075395e","name":"Warszawa, Stadion Narodowy","default_address":{"address":"ul. Sokola","full_address":"ul. Sokola, 05-077 Warszawa, Poland","coordinates":{"latitude":52.246066,"longitude":21.043332}},"address":"ul. Sokola","full_address":"ul. Sokola, 05-077 Warszawa, Poland","coordinates":{"latitude":52.246066,"longitude":21.043332}},{"id":10118,"uuid":"dcc454ac-9603-11e6-9066-549f350fcb0c","name":"Warsaw West","default_address":{"address":"Aleje Jerozolimskie 144","full_address":"Aleje Jerozolimskie 144, 02-303 Warszawa, Poland","coordinates":{"latitude":52.218398,"longitude":20.961755}},"address":"Aleje Jerozolimskie 144","full_address":"Aleje Jerozolimskie 144, 02-303 Warszawa, Poland","coordinates":{"latitude":52.218398,"longitude":20.961755}},{"id":9438,"uuid":"dcc3e708-9603-11e6-9066-549f350fcb0c","name":"Warszawa, Lotnisko Chopina","default_address":{"address":"ul. Żwirki i Wigury 1","full_address":"ul. Żwirki i Wigury 1, 00-906 Warszawa, Poland","coordinates":{"latitude":52.1692406,"longitude":20.9742722}},"address":"ul. Żwirki i Wigury 1","full_address":"ul. Żwirki i Wigury 1, 00-906 Warszawa, Poland","coordinates":{"latitude":52.1692406,"longitude":20.9742722}}],"ride_id":139716861,"trip_uid":"direct:139716861:56101:9438","has_tracker":false,"is_cancelled":false,"line_code":"L1240","direction":"Warszawa, Lotnisko Chopina"}],"message":"City bus stops located next to the National Stadium Subway Station.\nBus Stop No. 01 in direction to Chopin Airport, Berlin.\nBus Stop No. 02 in direction to Lublin, Hrubieszów."},"station":{"id":56101,"uuid":"9b6aeae7-3ecb-11ea-8017-02437075395e","name":"Warszawa, Stadion Narodowy","default_address":{"address":"ul. Sokola","full_address":"ul. Sokola, 05-077 Warszawa, Polska","coordinates":{"latitude":52.246066,"longitude":21.043332}},"address":"ul. Sokola","full_address":"ul. Sokola, 05-077 Warszawa, Polska","coordinates":{"latitude":52.246066,"longitude":21.043332}}}