{"schedule":{"arrivals":[{"through_the_stations":"Bydgoszcz, Dworzec Autobusowy → Toruń, ul. Broniewskiego → Toruń, Dw. Autobusowy → Płock, Dworzec Autobusowy → Nowy Dwór Mazowiecki, MPL Warszawa - Modlin → Warszawa, Metro Młociny","datetime":{"timestamp":1624525500,"tz":"GMT+02:00"},"line_direction":"Route 1351 direction Warszawa, Lotnisko Chopina","route":[{"id":1995,"uuid":"dcbccbe5-9603-11e6-9066-549f350fcb0c","name":"Bydgoszcz, Dworzec Autobusowy","default_address":{"address":"Jagiellonska 58","full_address":"Jagiellonska 58, 85-001 Bydgoszcz, Poland","coordinates":{"latitude":53.1220205,"longitude":18.017502}},"address":"Jagiellonska 58","full_address":"Jagiellonska 58, 85-001 Bydgoszcz, Poland","coordinates":{"latitude":53.1220205,"longitude":18.017502}},{"id":28338,"uuid":"5404247b-9239-4c05-b4e8-479383d7c584","name":"Toruń, ul. Broniewskiego","default_address":{"address":"ul. Broniewskiego","full_address":"ul. Broniewskiego, 87-100 Toruń, Poland","coordinates":{"latitude":53.013736007974,"longitude":18.57156611515}},"address":"ul. Broniewskiego","full_address":"ul. Broniewskiego, 87-100 Toruń, Poland","coordinates":{"latitude":53.013736007974,"longitude":18.57156611515}},{"id":28328,"uuid":"8819e9fd-847b-4997-9eed-bca0a3776dae","name":"Toruń, Dw. Autobusowy","default_address":{"address":"ul. Dąbrowskiego 8/24","full_address":"ul. Dąbrowskiego 8/24, 87-100 Toruń, Poland","coordinates":{"latitude":53.01568762257357,"longitude":18.607644917519526}},"address":"ul. Dąbrowskiego 8/24","full_address":"ul. Dąbrowskiego 8/24, 87-100 Toruń, Poland","coordinates":{"latitude":53.01568762257357,"longitude":18.607644917519526}},{"id":23468,"uuid":"0d69483a-e42b-4723-bbbc-b1f8c6f5259c","name":"Płock, Dworzec Autobusowy","default_address":{"address":"ul. Dworcowa 46","full_address":"ul. Dworcowa 46, 09-400 Płock, Poland","coordinates":{"latitude":52.552346737724,"longitude":19.711879134918}},"address":"ul. Dworcowa 46","full_address":"ul. Dworcowa 46, 09-400 Płock, Poland","coordinates":{"latitude":52.552346737724,"longitude":19.711879134918}},{"id":28718,"uuid":"bbc81f9a-abe7-4fae-aa84-b9d28c5669a3","name":"Nowy Dwór Mazowiecki, MPL Warszawa - Modlin","default_address":{"address":"ul. Gen. Wiktora Thommee 1A","full_address":"ul. Gen. Wiktora Thommee 1A, 05-102 Nowy Dwór Mazowiecki, Poland","coordinates":{"latitude":52.445940439548,"longitude":20.650767103459}},"address":"ul. Gen. Wiktora Thommee 1A","full_address":"ul. Gen. Wiktora Thommee 1A, 05-102 Nowy Dwór Mazowiecki, Poland","coordinates":{"latitude":52.445940439548,"longitude":20.650767103459}},{"id":9437,"uuid":"dcc3e175-9603-11e6-9066-549f350fcb0c","name":"Warszawa, Metro Młociny","default_address":{"address":"ul. Kasprowicza 145","full_address":"ul. Kasprowicza 145, 01-949 Warszawa, Poland","coordinates":{"latitude":52.290770981763,"longitude":20.927733164349}},"address":"ul. Kasprowicza 145","full_address":"ul. Kasprowicza 145, 01-949 Warszawa, Poland","coordinates":{"latitude":52.290770981763,"longitude":20.927733164349}}],"ride_id":129003041,"trip_uid":"direct:129003041:1995:9437","has_tracker":true,"is_cancelled":false,"line_code":"L1351","direction":"Warszawa, Lotnisko Chopina","delay_status":"late","delay":{"timestamp":1624526343,"tz":"GMT+02:00"},"station_ride_message":"14 mins late"},{"through_the_stations":"Olsztyn, Dworzec Autobusowy → Olsztyn, Uniwersytet-Prawocheńskiego → Olsztynek  Staromiejska → Nidzica, Dw. Autobusowy → Mława, Stary Rynek → Nowy Dwór Mazowiecki, MPL Warszawa - Modlin → Warszawa, Metro Młociny","datetime":{"timestamp":1624531200,"tz":"GMT+02:00"},"line_direction":"Route 1221 direction Zakopane, Dworzec Autobusowy","route":[{"id":46961,"uuid":"4d46503d-1f62-418c-b746-2fbc9c454d43","name":"Olsztyn, Dworzec Autobusowy","default_address":{"address":"Plac Konstytucji 3 Maja 2A","full_address":"Plac Konstytucji 3 Maja 2A, 10-589 Olsztyn, Poland","coordinates":{"latitude":53.78488,"longitude":20.499411}},"address":"Plac Konstytucji 3 Maja 2A","full_address":"Plac Konstytucji 3 Maja 2A, 10-589 Olsztyn, Poland","coordinates":{"latitude":53.78488,"longitude":20.499411}},{"id":36122,"uuid":"5623c3d4-0178-4ebe-97cf-d97be5f339e4","name":"Olsztyn, Uniwersytet-Prawocheńskiego","default_address":{"address":"Aleja Warszawska, 11-041 Olsztyn","full_address":"Aleja Warszawska, 11-041 Olsztyn, 11-041 Olsztyn, Poland","coordinates":{"latitude":53.758114988014,"longitude":20.461597164485}},"address":"Aleja Warszawska, 11-041 Olsztyn","full_address":"Aleja Warszawska, 11-041 Olsztyn, 11-041 Olsztyn, Poland","coordinates":{"latitude":53.758114988014,"longitude":20.461597164485}},{"id":54271,"uuid":"9b6bad60-3ecb-11ea-8017-02437075395e","name":"Olsztynek  Staromiejska","default_address":{"address":"ul. Staromiejska","full_address":"ul. Staromiejska, 11-015 Olsztynek, Poland","coordinates":{"latitude":53.580547,"longitude":20.281275}},"address":"ul. Ostródzka","full_address":"ul. Ostródzka, 11-015 Olsztynek, Poland","coordinates":{"latitude":53.583406,"longitude":20.279866}},{"id":36112,"uuid":"2ddf8af6-ccb9-4c25-9fd1-c668d4282a14","name":"Nidzica, Dw. Autobusowy","default_address":{"address":"Kolejowa 5","full_address":"Kolejowa 5, 13-100 Nidzica, Poland","coordinates":{"latitude":53.357855651838,"longitude":20.414986389831}},"address":"Kolejowa 5","full_address":"Kolejowa 5, 13-100 Nidzica, Poland","coordinates":{"latitude":53.357855651838,"longitude":20.414986389831}},{"id":23478,"uuid":"dc52e354-d90b-489a-970c-7935f2139bc0","name":"Mława, Stary Rynek","default_address":{"address":"Stary Rynek","full_address":"Stary Rynek, 06-500 Mława, Poland","coordinates":{"latitude":53.112055,"longitude":20.382384}},"address":"Stary Rynek","full_address":"Stary Rynek, 06-500 Mława, Poland","coordinates":{"latitude":53.112055,"longitude":20.382384}},{"id":28718,"uuid":"bbc81f9a-abe7-4fae-aa84-b9d28c5669a3","name":"Nowy Dwór Mazowiecki, MPL Warszawa - Modlin","default_address":{"address":"ul. Gen. Wiktora Thommee 1A","full_address":"ul. Gen. Wiktora Thommee 1A, 05-102 Nowy Dwór Mazowiecki, Poland","coordinates":{"latitude":52.445940439548,"longitude":20.650767103459}},"address":"ul. Gen. Wiktora Thommee 1A","full_address":"ul. Gen. Wiktora Thommee 1A, 05-102 Nowy Dwór Mazowiecki, Poland","coordinates":{"latitude":52.445940439548,"longitude":20.650767103459}},{"id":9437,"uuid":"dcc3e175-9603-11e6-9066-549f350fcb0c","name":"Warszawa, Metro Młociny","default_address":{"address":"ul. Kasprowicza 145","full_address":"ul. Kasprowicza 145, 01-949 Warszawa, Poland","coordinates":{"latitude":52.290770981763,"longitude":20.927733164349}},"address":"ul. Kasprowicza 145","full_address":"ul. Kasprowicza 145, 01-949 Warszawa, Poland","coordinates":{"latitude":52.290770981763,"longitude":20.927733164349}}],"ride_id":140545321,"trip_uid":"direct:140545321:46961:9437","has_tracker":false,"is_cancelled":false,"line_code":"L1221","direction":"Zakopane, Dworzec Autobusowy"},{"through_the_stations":"Gdynia, Dworzec Autobusowy → Sopot, PKP Niepodległości 01 i 02 → Gdańsk, Hala Olivia 1840 i 1841 → Gdańsk, Dworzec Autobusowy → Elbląg, Dworzec Autobusowy → Ostróda, Grunwaldzka → Nowy Dwór Mazowiecki, MPL Warszawa - Modlin → Warszawa, Metro Młociny","datetime":{"timestamp":1624534500,"tz":"GMT+02:00"},"line_direction":"Route 1200 direction Warszawa, Lotnisko Chopina","route":[{"id":25618,"uuid":"0cdde44e-e945-4e63-83fe-13e09a57691e","name":"Gdynia, Dworzec Autobusowy","default_address":{"address":"Plac Konstytucji 1","full_address":"Plac Konstytucji 1, 81-354 Gdynia, Poland","coordinates":{"latitude":54.521992,"longitude":18.529541}},"address":"Plac Konstytucji 1","full_address":"Plac Konstytucji 1, 81-354 Gdynia, Poland","coordinates":{"latitude":54.521992,"longitude":18.529541}},{"id":29998,"uuid":"db8dec0b-cc98-4f2e-b602-e3365c25852f","name":"Sopot, PKP Niepodległości 01 i 02","default_address":{"address":"Aleja Niepodległości 748","full_address":"Aleja Niepodległości 748, 81-840 Sopot, Poland","coordinates":{"latitude":54.438586985448,"longitude":18.560716207183}},"address":"Aleja Niepodległości 748","full_address":"Aleja Niepodległości 748, 81-840 Sopot, Poland","coordinates":{"latitude":54.438586985448,"longitude":18.560716207183}},{"id":29988,"uuid":"5d60df25-b809-4b41-a49b-ea6aaaefebd1","name":"Gdańsk, Hala Olivia 1840 i 1841","default_address":{"address":"Al. Grunwaldzka","full_address":"Al. Grunwaldzka, 80-309 Gdańsk, Poland","coordinates":{"latitude":54.40129044696,"longitude":18.573877078689}},"address":"Al. Grunwaldzka","full_address":"Al. Grunwaldzka, 80-309 Gdańsk, Poland","coordinates":{"latitude":54.40129044696,"longitude":18.573877078689}},{"id":2035,"uuid":"dcbcd754-9603-11e6-9066-549f350fcb0c","name":"Gdańsk, Dworzec Autobusowy","default_address":{"address":"ul. 3 maja 12","full_address":"ul. 3 maja 12, 80-802 Gdansk, Poland","coordinates":{"latitude":54.356151824566,"longitude":18.642735821763}},"address":"ul. 3 maja 12","full_address":"ul. 3 maja 12, 80-802 Gdansk, Poland","coordinates":{"latitude":54.356151824566,"longitude":18.642735821763}},{"id":36281,"uuid":"9a45366a-9d4c-4fbb-8bb2-db9d947db03b","name":"Elbląg, Dworzec Autobusowy","default_address":{"address":"plac Dworcowy 4, 82-300 Elbląg","full_address":"plac Dworcowy 4, 82-300 Elbląg, 82-300 Elbląg, Poland","coordinates":{"latitude":54.152175,"longitude":19.414913}},"address":"plac Dworcowy 4, 82-300 Elbląg","full_address":"plac Dworcowy 4, 82-300 Elbląg, 82-300 Elbląg, Poland","coordinates":{"latitude":54.152175,"longitude":19.414913}},{"id":23458,"uuid":"fa5251f2-fc15-4d6d-8917-2e30a2269cb0","name":"Ostróda, Grunwaldzka","default_address":{"address":"ul. Grunwaldzka","full_address":"ul. Grunwaldzka, 14-100 Ostróda, Poland","coordinates":{"latitude":53.692407,"longitude":19.978268}},"address":"ul. Grunwaldzka","full_address":"ul. Grunwaldzka, 14-100 Ostróda, Poland","coordinates":{"latitude":53.692407,"longitude":19.978268}},{"id":28718,"uuid":"bbc81f9a-abe7-4fae-aa84-b9d28c5669a3","name":"Nowy Dwór Mazowiecki, MPL Warszawa - Modlin","default_address":{"address":"ul. Gen. Wiktora Thommee 1A","full_address":"ul. Gen. Wiktora Thommee 1A, 05-102 Nowy Dwór Mazowiecki, Poland","coordinates":{"latitude":52.445940439548,"longitude":20.650767103459}},"address":"ul. Gen. Wiktora Thommee 1A","full_address":"ul. Gen. Wiktora Thommee 1A, 05-102 Nowy Dwór Mazowiecki, Poland","coordinates":{"latitude":52.445940439548,"longitude":20.650767103459}},{"id":9437,"uuid":"dcc3e175-9603-11e6-9066-549f350fcb0c","name":"Warszawa, Metro Młociny","default_address":{"address":"ul. Kasprowicza 145","full_address":"ul. Kasprowicza 145, 01-949 Warszawa, Poland","coordinates":{"latitude":52.290770981763,"longitude":20.927733164349}},"address":"ul. Kasprowicza 145","full_address":"ul. Kasprowicza 145, 01-949 Warszawa, Poland","coordinates":{"latitude":52.290770981763,"longitude":20.927733164349}}],"ride_id":131439021,"trip_uid":"direct:131439021:25618:9437","has_tracker":true,"is_cancelled":false,"line_code":"L1200","direction":"Warszawa, Lotnisko Chopina","delay_status":"late","delay":{"timestamp":1624535487,"tz":"GMT+02:00"},"station_ride_message":"16 mins late"},{"through_the_stations":"Warszawa, Lotnisko Chopina → Warsaw West → Warszawa, Metro Młociny","datetime":{"timestamp":1624543500,"tz":"GMT+02:00"},"line_direction":"Route 1200 direction Gdynia, Dworzec Autobusowy","route":[{"id":9438,"uuid":"dcc3e708-9603-11e6-9066-549f350fcb0c","name":"Warszawa, Lotnisko Chopina","default_address":{"address":"ul. Żwirki i Wigury 1","full_address":"ul. Żwirki i Wigury 1, 00-906 Warszawa, Poland","coordinates":{"latitude":52.1692406,"longitude":20.9742722}},"address":"ul. Żwirki i Wigury 1","full_address":"ul. Żwirki i Wigury 1, 00-906 Warszawa, Poland","coordinates":{"latitude":52.1692406,"longitude":20.9742722}},{"id":10118,"uuid":"dcc454ac-9603-11e6-9066-549f350fcb0c","name":"Warsaw West","default_address":{"address":"Aleje Jerozolimskie 144","full_address":"Aleje Jerozolimskie 144, 02-303 Warszawa, Poland","coordinates":{"latitude":52.218398,"longitude":20.961755}},"address":"Aleje Jerozolimskie 144","full_address":"Aleje Jerozolimskie 144, 02-303 Warszawa, Poland","coordinates":{"latitude":52.218398,"longitude":20.961755}},{"id":9437,"uuid":"dcc3e175-9603-11e6-9066-549f350fcb0c","name":"Warszawa, Metro Młociny","default_address":{"address":"ul. Kasprowicza 145","full_address":"ul. Kasprowicza 145, 01-949 Warszawa, Poland","coordinates":{"latitude":52.290770981763,"longitude":20.927733164349}},"address":"ul. Kasprowicza 145","full_address":"ul. Kasprowicza 145, 01-949 Warszawa, Poland","coordinates":{"latitude":52.290770981763,"longitude":20.927733164349}}],"ride_id":131439111,"trip_uid":"direct:131439111:9438:9437","has_tracker":false,"is_cancelled":false,"line_code":"L1200","direction":"Gdynia, Dworzec Autobusowy"},{"through_the_stations":"Zakopane, Parking E.Leclerc → Nowy Targ, Dw. Autobusowy → Kraków MDA → Kielce, Dworzec Autobusowy → Radom Dworzec Autobusowy → Warszawa, Lotnisko Chopina → Warszawa, Metro Młociny","datetime":{"timestamp":1624545300,"tz":"GMT+02:00"},"line_direction":"Route 1261 direction Warszawa, Metro Młociny","route":[{"id":36471,"uuid":"8a121cd9-7761-435e-a6d1-808ac5395f4c","name":"Zakopane, Parking E.Leclerc","default_address":{"address":"Kościuszki 25","full_address":"Kościuszki 25, 34-500 Zakopane, Poland","coordinates":{"latitude":49.300188806271,"longitude":19.961124842121}},"address":"Kościuszki 25","full_address":"Kościuszki 25, 34-500 Zakopane, Poland","coordinates":{"latitude":49.300188806271,"longitude":19.961124842121}},{"id":29358,"uuid":"9654da64-7fdf-493e-84ee-65cbd9a688b1","name":"Nowy Targ, Dw. Autobusowy","default_address":{"address":"Aleja Tysiąclecia 21","full_address":"Aleja Tysiąclecia 21, 34-400 Nowy Targ, Poland","coordinates":{"latitude":49.478054,"longitude":20.023001}},"address":"Aleja Tysiąclecia 21","full_address":"Aleja Tysiąclecia 21, 34-400 Nowy Targ, Poland","coordinates":{"latitude":49.478054,"longitude":20.023001}},{"id":2196,"uuid":"dcbd0e26-9603-11e6-9066-549f350fcb0c","name":"Kraków MDA","default_address":{"address":"ul. Bosacka 18","full_address":"ul. Bosacka 18, 31-505 Kraków, Poland","coordinates":{"latitude":50.067614,"longitude":19.94951}},"address":"ul. Bosacka 18","full_address":"ul. Bosacka 18, 31-505 Kraków, Poland","coordinates":{"latitude":50.067614,"longitude":19.94951}},{"id":23528,"uuid":"9563e4ca-0972-4805-a7b0-62d52b86793c","name":"Kielce, Dworzec Autobusowy","default_address":{"address":"Czarnowska 12","full_address":"Czarnowska 12, 25-504 Kielce, Poland","coordinates":{"latitude":50.875679,"longitude":20.621443}},"address":"Czarnowska 12","full_address":"Czarnowska 12, 25-504 Kielce, Poland","coordinates":{"latitude":50.875679,"longitude":20.621443}},{"id":23498,"uuid":"6caf963e-0be6-4925-abab-6a5931666154","name":"Radom Dworzec Autobusowy","default_address":{"address":"ul. B. Prażmowskiego 8","full_address":"ul. B. Prażmowskiego 8, 26-600 Radom, Poland","coordinates":{"latitude":51.392456,"longitude":21.15741}},"address":"ul. B. Prażmowskiego 8","full_address":"ul. B. Prażmowskiego 8, 26-600 Radom, Poland","coordinates":{"latitude":51.392456,"longitude":21.15741}},{"id":9438,"uuid":"dcc3e708-9603-11e6-9066-549f350fcb0c","name":"Warszawa, Lotnisko Chopina","default_address":{"address":"ul. Żwirki i Wigury 1","full_address":"ul. Żwirki i Wigury 1, 00-906 Warszawa, Poland","coordinates":{"latitude":52.1692406,"longitude":20.9742722}},"address":"ul. Żwirki i Wigury 1","full_address":"ul. Żwirki i Wigury 1, 00-906 Warszawa, Poland","coordinates":{"latitude":52.1692406,"longitude":20.9742722}},{"id":9437,"uuid":"dcc3e175-9603-11e6-9066-549f350fcb0c","name":"Warszawa, Metro Młociny","default_address":{"address":"ul. Kasprowicza 145","full_address":"ul. Kasprowicza 145, 01-949 Warszawa, Poland","coordinates":{"latitude":52.290770981763,"longitude":20.927733164349}},"address":"ul. Kasprowicza 145","full_address":"ul. Kasprowicza 145, 01-949 Warszawa, Poland","coordinates":{"latitude":52.290770981763,"longitude":20.927733164349}}],"ride_id":132641441,"trip_uid":"direct:132641441:36471:9437","has_tracker":false,"is_cancelled":false,"line_code":"L1261","direction":"Warszawa, Metro Młociny"},{"through_the_stations":"Warszawa, Lotnisko Chopina → Warsaw West → Warszawa, Metro Młociny","datetime":{"timestamp":1624548300,"tz":"GMT+02:00"},"line_direction":"Route 1351 direction Bydgoszcz, Dworzec Autobusowy","route":[{"id":9438,"uuid":"dcc3e708-9603-11e6-9066-549f350fcb0c","name":"Warszawa, Lotnisko Chopina","default_address":{"address":"ul. Żwirki i Wigury 1","full_address":"ul. Żwirki i Wigury 1, 00-906 Warszawa, Poland","coordinates":{"latitude":52.1692406,"longitude":20.9742722}},"address":"ul. Żwirki i Wigury 1","full_address":"ul. Żwirki i Wigury 1, 00-906 Warszawa, Poland","coordinates":{"latitude":52.1692406,"longitude":20.9742722}},{"id":10118,"uuid":"dcc454ac-9603-11e6-9066-549f350fcb0c","name":"Warsaw West","default_address":{"address":"Aleje Jerozolimskie 144","full_address":"Aleje Jerozolimskie 144, 02-303 Warszawa, Poland","coordinates":{"latitude":52.218398,"longitude":20.961755}},"address":"Aleje Jerozolimskie 144","full_address":"Aleje Jerozolimskie 144, 02-303 Warszawa, Poland","coordinates":{"latitude":52.218398,"longitude":20.961755}},{"id":9437,"uuid":"dcc3e175-9603-11e6-9066-549f350fcb0c","name":"Warszawa, Metro Młociny","default_address":{"address":"ul. Kasprowicza 145","full_address":"ul. Kasprowicza 145, 01-949 Warszawa, Poland","coordinates":{"latitude":52.290770981763,"longitude":20.927733164349}},"address":"ul. Kasprowicza 145","full_address":"ul. Kasprowicza 145, 01-949 Warszawa, Poland","coordinates":{"latitude":52.290770981763,"longitude":20.927733164349}}],"ride_id":129003051,"trip_uid":"direct:129003051:9438:9437","has_tracker":false,"is_cancelled":false,"line_code":"L1351","direction":"Bydgoszcz, Dworzec Autobusowy"},{"through_the_stations":"Bydgoszcz, Dworzec Autobusowy → Toruń, ul. Broniewskiego → Toruń, Dw. Autobusowy → Ciechocinek, ul. Kopernika → Włocławek, Dworzec Autobusowy → Płock, Dworzec Autobusowy → Nowy Dwór Mazowiecki, MPL Warszawa - Modlin → Warszawa, Metro Młociny","datetime":{"timestamp":1624550400,"tz":"GMT+02:00"},"line_direction":"Route 1352 direction Warszawa, Lotnisko Chopina","route":[{"id":1995,"uuid":"dcbccbe5-9603-11e6-9066-549f350fcb0c","name":"Bydgoszcz, Dworzec Autobusowy","default_address":{"address":"Jagiellonska 58","full_address":"Jagiellonska 58, 85-001 Bydgoszcz, Poland","coordinates":{"latitude":53.1220205,"longitude":18.017502}},"address":"Jagiellonska 58","full_address":"Jagiellonska 58, 85-001 Bydgoszcz, Poland","coordinates":{"latitude":53.1220205,"longitude":18.017502}},{"id":28338,"uuid":"5404247b-9239-4c05-b4e8-479383d7c584","name":"Toruń, ul. Broniewskiego","default_address":{"address":"ul. Broniewskiego","full_address":"ul. Broniewskiego, 87-100 Toruń, Poland","coordinates":{"latitude":53.013736007974,"longitude":18.57156611515}},"address":"ul. Broniewskiego","full_address":"ul. Broniewskiego, 87-100 Toruń, Poland","coordinates":{"latitude":53.013736007974,"longitude":18.57156611515}},{"id":28328,"uuid":"8819e9fd-847b-4997-9eed-bca0a3776dae","name":"Toruń, Dw. Autobusowy","default_address":{"address":"ul. Dąbrowskiego 8/24","full_address":"ul. Dąbrowskiego 8/24, 87-100 Toruń, Poland","coordinates":{"latitude":53.01568762257357,"longitude":18.607644917519526}},"address":"ul. Dąbrowskiego 8/24","full_address":"ul. Dąbrowskiego 8/24, 87-100 Toruń, Poland","coordinates":{"latitude":53.01568762257357,"longitude":18.607644917519526}},{"id":28728,"uuid":"0a26b33e-949c-4515-9032-a5b94b9ce75a","name":"Ciechocinek, ul. Kopernika","default_address":{"address":"ul. Mikolaja Kopernika 6A","full_address":"ul. Mikolaja Kopernika 6A, 87-720 Ciechocinek, Poland","coordinates":{"latitude":52.88053,"longitude":18.78703}},"address":"ul. Mikolaja Kopernika 6A","full_address":"ul. Mikolaja Kopernika 6A, 87-720 Ciechocinek, Poland","coordinates":{"latitude":52.88053,"longitude":18.78703}},{"id":23518,"uuid":"e23391c7-8937-4b89-bb3b-ec4ed085709c","name":"Włocławek, Dworzec Autobusowy","default_address":{"address":"ul. Stefana Okrzei 65","full_address":"ul. Stefana Okrzei 65, 87-800 Włocławek, Poland","coordinates":{"latitude":52.653635,"longitude":19.059291}},"address":"ul. Węglowa 13","full_address":"ul. Węglowa 13, 87-810 Włocławek, Poland","coordinates":{"latitude":52.651272,"longitude":19.059249}},{"id":23468,"uuid":"0d69483a-e42b-4723-bbbc-b1f8c6f5259c","name":"Płock, Dworzec Autobusowy","default_address":{"address":"ul. Dworcowa 46","full_address":"ul. Dworcowa 46, 09-400 Płock, Poland","coordinates":{"latitude":52.552346737724,"longitude":19.711879134918}},"address":"ul. Dworcowa 46","full_address":"ul. Dworcowa 46, 09-400 Płock, Poland","coordinates":{"latitude":52.552346737724,"longitude":19.711879134918}},{"id":28718,"uuid":"bbc81f9a-abe7-4fae-aa84-b9d28c5669a3","name":"Nowy Dwór Mazowiecki, MPL Warszawa - Modlin","default_address":{"address":"ul. Gen. Wiktora Thommee 1A","full_address":"ul. Gen. Wiktora Thommee 1A, 05-102 Nowy Dwór Mazowiecki, Poland","coordinates":{"latitude":52.445940439548,"longitude":20.650767103459}},"address":"ul. Gen. Wiktora Thommee 1A","full_address":"ul. Gen. Wiktora Thommee 1A, 05-102 Nowy Dwór Mazowiecki, Poland","coordinates":{"latitude":52.445940439548,"longitude":20.650767103459}},{"id":9437,"uuid":"dcc3e175-9603-11e6-9066-549f350fcb0c","name":"Warszawa, Metro Młociny","default_address":{"address":"ul. Kasprowicza 145","full_address":"ul. Kasprowicza 145, 01-949 Warszawa, Poland","coordinates":{"latitude":52.290770981763,"longitude":20.927733164349}},"address":"ul. Kasprowicza 145","full_address":"ul. Kasprowicza 145, 01-949 Warszawa, Poland","coordinates":{"latitude":52.290770981763,"longitude":20.927733164349}}],"ride_id":126816311,"trip_uid":"direct:126816311:1995:9437","has_tracker":false,"is_cancelled":false,"line_code":"L1352","direction":"Warszawa, Lotnisko Chopina"},{"through_the_stations":"Gdynia, Dworzec Autobusowy → Sopot, PKP Niepodległości 01 i 02 → Gdańsk, Hala Olivia 1840 i 1841 → Gdańsk, Dworzec Autobusowy → Elbląg, Dworzec Autobusowy → Nidzica, Dw. Autobusowy → Mława, Stary Rynek → Nowy Dwór Mazowiecki, MPL Warszawa - Modlin → Warszawa, Metro Młociny","datetime":{"timestamp":1624556400,"tz":"GMT+02:00"},"line_direction":"Route 1200 direction Warszawa, Lotnisko Chopina","route":[{"id":25618,"uuid":"0cdde44e-e945-4e63-83fe-13e09a57691e","name":"Gdynia, Dworzec Autobusowy","default_address":{"address":"Plac Konstytucji 1","full_address":"Plac Konstytucji 1, 81-354 Gdynia, Poland","coordinates":{"latitude":54.521992,"longitude":18.529541}},"address":"Plac Konstytucji 1","full_address":"Plac Konstytucji 1, 81-354 Gdynia, Poland","coordinates":{"latitude":54.521992,"longitude":18.529541}},{"id":29998,"uuid":"db8dec0b-cc98-4f2e-b602-e3365c25852f","name":"Sopot, PKP Niepodległości 01 i 02","default_address":{"address":"Aleja Niepodległości 748","full_address":"Aleja Niepodległości 748, 81-840 Sopot, Poland","coordinates":{"latitude":54.438586985448,"longitude":18.560716207183}},"address":"Aleja Niepodległości 748","full_address":"Aleja Niepodległości 748, 81-840 Sopot, Poland","coordinates":{"latitude":54.438586985448,"longitude":18.560716207183}},{"id":29988,"uuid":"5d60df25-b809-4b41-a49b-ea6aaaefebd1","name":"Gdańsk, Hala Olivia 1840 i 1841","default_address":{"address":"Al. Grunwaldzka","full_address":"Al. Grunwaldzka, 80-309 Gdańsk, Poland","coordinates":{"latitude":54.40129044696,"longitude":18.573877078689}},"address":"Al. Grunwaldzka","full_address":"Al. Grunwaldzka, 80-309 Gdańsk, Poland","coordinates":{"latitude":54.40129044696,"longitude":18.573877078689}},{"id":2035,"uuid":"dcbcd754-9603-11e6-9066-549f350fcb0c","name":"Gdańsk, Dworzec Autobusowy","default_address":{"address":"ul. 3 maja 12","full_address":"ul. 3 maja 12, 80-802 Gdansk, Poland","coordinates":{"latitude":54.356151824566,"longitude":18.642735821763}},"address":"ul. 3 maja 12","full_address":"ul. 3 maja 12, 80-802 Gdansk, Poland","coordinates":{"latitude":54.356151824566,"longitude":18.642735821763}},{"id":36281,"uuid":"9a45366a-9d4c-4fbb-8bb2-db9d947db03b","name":"Elbląg, Dworzec Autobusowy","default_address":{"address":"plac Dworcowy 4, 82-300 Elbląg","full_address":"plac Dworcowy 4, 82-300 Elbląg, 82-300 Elbląg, Poland","coordinates":{"latitude":54.152175,"longitude":19.414913}},"address":"plac Dworcowy 4, 82-300 Elbląg","full_address":"plac Dworcowy 4, 82-300 Elbląg, 82-300 Elbląg, Poland","coordinates":{"latitude":54.152175,"longitude":19.414913}},{"id":36112,"uuid":"2ddf8af6-ccb9-4c25-9fd1-c668d4282a14","name":"Nidzica, Dw. Autobusowy","default_address":{"address":"Kolejowa 5","full_address":"Kolejowa 5, 13-100 Nidzica, Poland","coordinates":{"latitude":53.357855651838,"longitude":20.414986389831}},"address":"Kolejowa 5","full_address":"Kolejowa 5, 13-100 Nidzica, Poland","coordinates":{"latitude":53.357855651838,"longitude":20.414986389831}},{"id":23478,"uuid":"dc52e354-d90b-489a-970c-7935f2139bc0","name":"Mława, Stary Rynek","default_address":{"address":"Stary Rynek","full_address":"Stary Rynek, 06-500 Mława, Poland","coordinates":{"latitude":53.112055,"longitude":20.382384}},"address":"Stary Rynek","full_address":"Stary Rynek, 06-500 Mława, Poland","coordinates":{"latitude":53.112055,"longitude":20.382384}},{"id":28718,"uuid":"bbc81f9a-abe7-4fae-aa84-b9d28c5669a3","name":"Nowy Dwór Mazowiecki, MPL Warszawa - Modlin","default_address":{"address":"ul. Gen. Wiktora Thommee 1A","full_address":"ul. Gen. Wiktora Thommee 1A, 05-102 Nowy Dwór Mazowiecki, Poland","coordinates":{"latitude":52.445940439548,"longitude":20.650767103459}},"address":"ul. Gen. Wiktora Thommee 1A","full_address":"ul. Gen. Wiktora Thommee 1A, 05-102 Nowy Dwór Mazowiecki, Poland","coordinates":{"latitude":52.445940439548,"longitude":20.650767103459}},{"id":9437,"uuid":"dcc3e175-9603-11e6-9066-549f350fcb0c","name":"Warszawa, Metro Młociny","default_address":{"address":"ul. Kasprowicza 145","full_address":"ul. Kasprowicza 145, 01-949 Warszawa, Poland","coordinates":{"latitude":52.290770981763,"longitude":20.927733164349}},"address":"ul. Kasprowicza 145","full_address":"ul. Kasprowicza 145, 01-949 Warszawa, Poland","coordinates":{"latitude":52.290770981763,"longitude":20.927733164349}}],"ride_id":131439081,"trip_uid":"direct:131439081:25618:9437","has_tracker":false,"is_cancelled":false,"line_code":"L1200","direction":"Warszawa, Lotnisko Chopina"},{"through_the_stations":"Warszawa, Lotnisko Chopina → Warsaw West → Warszawa, Metro Młociny","datetime":{"timestamp":1624573200,"tz":"GMT+02:00"},"line_direction":"Route N1210 direction Gdynia, Dworzec Autobusowy","route":[{"id":9438,"uuid":"dcc3e708-9603-11e6-9066-549f350fcb0c","name":"Warszawa, Lotnisko Chopina","default_address":{"address":"ul. Żwirki i Wigury 1","full_address":"ul. Żwirki i Wigury 1, 00-906 Warszawa, Poland","coordinates":{"latitude":52.1692406,"longitude":20.9742722}},"address":"ul. Żwirki i Wigury 1","full_address":"ul. Żwirki i Wigury 1, 00-906 Warszawa, Poland","coordinates":{"latitude":52.1692406,"longitude":20.9742722}},{"id":10118,"uuid":"dcc454ac-9603-11e6-9066-549f350fcb0c","name":"Warsaw West","default_address":{"address":"Aleje Jerozolimskie 144","full_address":"Aleje Jerozolimskie 144, 02-303 Warszawa, Poland","coordinates":{"latitude":52.218398,"longitude":20.961755}},"address":"Aleje Jerozolimskie 144","full_address":"Aleje Jerozolimskie 144, 02-303 Warszawa, Poland","coordinates":{"latitude":52.218398,"longitude":20.961755}},{"id":9437,"uuid":"dcc3e175-9603-11e6-9066-549f350fcb0c","name":"Warszawa, Metro Młociny","default_address":{"address":"ul. Kasprowicza 145","full_address":"ul. Kasprowicza 145, 01-949 Warszawa, Poland","coordinates":{"latitude":52.290770981763,"longitude":20.927733164349}},"address":"ul. Kasprowicza 145","full_address":"ul. Kasprowicza 145, 01-949 Warszawa, Poland","coordinates":{"latitude":52.290770981763,"longitude":20.927733164349}}],"ride_id":131517281,"trip_uid":"direct:131517281:9438:9437","has_tracker":false,"is_cancelled":false,"line_code":"N1210","direction":"Gdynia, Dworzec Autobusowy"},{"through_the_stations":"Gdynia, Dworzec Autobusowy → Sopot, PKP Niepodległości 01 i 02 → Gdańsk, Hala Olivia 1840 i 1841 → Gdańsk, Dworzec Autobusowy → Grudziądz, Włodka 01 i 02 → Włocławek, Dworzec Autobusowy → Płock, Dworzec Autobusowy → Nowy Dwór Mazowiecki, MPL Warszawa - Modlin → Warszawa, Metro Młociny","datetime":{"timestamp":1624592100,"tz":"GMT+02:00"},"line_direction":"Route N1210 direction Warszawa, Lotnisko Chopina","route":[{"id":25618,"uuid":"0cdde44e-e945-4e63-83fe-13e09a57691e","name":"Gdynia, Dworzec Autobusowy","default_address":{"address":"Plac Konstytucji 1","full_address":"Plac Konstytucji 1, 81-354 Gdynia, Poland","coordinates":{"latitude":54.521992,"longitude":18.529541}},"address":"Plac Konstytucji 1","full_address":"Plac Konstytucji 1, 81-354 Gdynia, Poland","coordinates":{"latitude":54.521992,"longitude":18.529541}},{"id":29998,"uuid":"db8dec0b-cc98-4f2e-b602-e3365c25852f","name":"Sopot, PKP Niepodległości 01 i 02","default_address":{"address":"Aleja Niepodległości 748","full_address":"Aleja Niepodległości 748, 81-840 Sopot, Poland","coordinates":{"latitude":54.438586985448,"longitude":18.560716207183}},"address":"Aleja Niepodległości 748","full_address":"Aleja Niepodległości 748, 81-840 Sopot, Poland","coordinates":{"latitude":54.438586985448,"longitude":18.560716207183}},{"id":29988,"uuid":"5d60df25-b809-4b41-a49b-ea6aaaefebd1","name":"Gdańsk, Hala Olivia 1840 i 1841","default_address":{"address":"Al. Grunwaldzka","full_address":"Al. Grunwaldzka, 80-309 Gdańsk, Poland","coordinates":{"latitude":54.40129044696,"longitude":18.573877078689}},"address":"Al. Grunwaldzka","full_address":"Al. Grunwaldzka, 80-309 Gdańsk, Poland","coordinates":{"latitude":54.40129044696,"longitude":18.573877078689}},{"id":2035,"uuid":"dcbcd754-9603-11e6-9066-549f350fcb0c","name":"Gdańsk, Dworzec Autobusowy","default_address":{"address":"ul. 3 maja 12","full_address":"ul. 3 maja 12, 80-802 Gdansk, Poland","coordinates":{"latitude":54.356151824566,"longitude":18.642735821763}},"address":"ul. 3 maja 12","full_address":"ul. 3 maja 12, 80-802 Gdansk, Poland","coordinates":{"latitude":54.356151824566,"longitude":18.642735821763}},{"id":29978,"uuid":"e3aa3792-51e9-49e0-8872-fdf824634e8d","name":"Grudziądz, Włodka 01 i 02","default_address":{"address":"ul. Włodka 7","full_address":"ul. Włodka 7, 86-300 Grudziadz, Poland","coordinates":{"latitude":53.484427176611,"longitude":18.750798957514}},"address":"ul. Włodka 7","full_address":"ul. Włodka 7, 86-300 Grudziadz, Poland","coordinates":{"latitude":53.484427176611,"longitude":18.750798957514}},{"id":23518,"uuid":"e23391c7-8937-4b89-bb3b-ec4ed085709c","name":"Włocławek, Dworzec Autobusowy","default_address":{"address":"ul. Stefana Okrzei 65","full_address":"ul. Stefana Okrzei 65, 87-800 Włocławek, Poland","coordinates":{"latitude":52.653635,"longitude":19.059291}},"address":"ul. Węglowa 13","full_address":"ul. Węglowa 13, 87-810 Włocławek, Poland","coordinates":{"latitude":52.651272,"longitude":19.059249}},{"id":23468,"uuid":"0d69483a-e42b-4723-bbbc-b1f8c6f5259c","name":"Płock, Dworzec Autobusowy","default_address":{"address":"ul. Dworcowa 46","full_address":"ul. Dworcowa 46, 09-400 Płock, Poland","coordinates":{"latitude":52.552346737724,"longitude":19.711879134918}},"address":"ul. Dworcowa 46","full_address":"ul. Dworcowa 46, 09-400 Płock, Poland","coordinates":{"latitude":52.552346737724,"longitude":19.711879134918}},{"id":28718,"uuid":"bbc81f9a-abe7-4fae-aa84-b9d28c5669a3","name":"Nowy Dwór Mazowiecki, MPL Warszawa - Modlin","default_address":{"address":"ul. Gen. Wiktora Thommee 1A","full_address":"ul. Gen. Wiktora Thommee 1A, 05-102 Nowy Dwór Mazowiecki, Poland","coordinates":{"latitude":52.445940439548,"longitude":20.650767103459}},"address":"ul. Gen. Wiktora Thommee 1A","full_address":"ul. Gen. Wiktora Thommee 1A, 05-102 Nowy Dwór Mazowiecki, Poland","coordinates":{"latitude":52.445940439548,"longitude":20.650767103459}},{"id":9437,"uuid":"dcc3e175-9603-11e6-9066-549f350fcb0c","name":"Warszawa, Metro Młociny","default_address":{"address":"ul. Kasprowicza 145","full_address":"ul. Kasprowicza 145, 01-949 Warszawa, Poland","coordinates":{"latitude":52.290770981763,"longitude":20.927733164349}},"address":"ul. Kasprowicza 145","full_address":"ul. Kasprowicza 145, 01-949 Warszawa, Poland","coordinates":{"latitude":52.290770981763,"longitude":20.927733164349}}],"ride_id":131517251,"trip_uid":"direct:131517251:25618:9437","has_tracker":false,"is_cancelled":false,"line_code":"N1210","direction":"Warszawa, Lotnisko Chopina"},{"through_the_stations":"Bydgoszcz, Dworzec Autobusowy → Toruń, ul. Broniewskiego → Toruń, Dw. Autobusowy→ Płock, Dworzec Autobusowy → Nowy Dwór Mazowiecki, MPL Warszawa - Modlin → Warszawa, Metro Młociny","datetime":{"timestamp":1624611900,"tz":"GMT+02:00"},"line_direction":"Route 1351 direction Warszawa, Lotnisko Chopina","route":[{"id":1995,"uuid":"dcbccbe5-9603-11e6-9066-549f350fcb0c","name":"Bydgoszcz, Dworzec Autobusowy","default_address":{"address":"Jagiellonska 58","full_address":"Jagiellonska 58, 85-001 Bydgoszcz, Poland","coordinates":{"latitude":53.1220205,"longitude":18.017502}},"address":"Jagiellonska 58","full_address":"Jagiellonska 58, 85-001 Bydgoszcz, Poland","coordinates":{"latitude":53.1220205,"longitude":18.017502}},{"id":28338,"uuid":"5404247b-9239-4c05-b4e8-479383d7c584","name":"Toruń, ul. Broniewskiego","default_address":{"address":"ul. Broniewskiego","full_address":"ul. Broniewskiego, 87-100 Toruń, Poland","coordinates":{"latitude":53.013736007974,"longitude":18.57156611515}},"address":"ul. Broniewskiego","full_address":"ul. Broniewskiego, 87-100 Toruń, Poland","coordinates":{"latitude":53.013736007974,"longitude":18.57156611515}},{"id":28328,"uuid":"8819e9fd-847b-4997-9eed-bca0a3776dae","name":"Toruń, Dw. Autobusowy","default_address":{"address":"ul. Dąbrowskiego 8/24","full_address":"ul. Dąbrowskiego 8/24, 87-100 Toruń, Poland","coordinates":{"latitude":53.01568762257357,"longitude":18.607644917519526}},"address":"ul. Dąbrowskiego 8/24","full_address":"ul. Dąbrowskiego 8/24, 87-100 Toruń, Poland","coordinates":{"latitude":53.01568762257357,"longitude":18.607644917519526}},{"id":23468,"uuid":"0d69483a-e42b-4723-bbbc-b1f8c6f5259c","name":"Płock, Dworzec Autobusowy","default_address":{"address":"ul. Dworcowa 46","full_address":"ul. Dworcowa 46, 09-400 Płock, Poland","coordinates":{"latitude":52.552346737724,"longitude":19.711879134918}},"address":"ul. Dworcowa 46","full_address":"ul. Dworcowa 46, 09-400 Płock, Poland","coordinates":{"latitude":52.552346737724,"longitude":19.711879134918}},{"id":28718,"uuid":"bbc81f9a-abe7-4fae-aa84-b9d28c5669a3","name":"Nowy Dwór Mazowiecki, MPL Warszawa - Modlin","default_address":{"address":"ul. Gen. Wiktora Thommee 1A","full_address":"ul. Gen. Wiktora Thommee 1A, 05-102 Nowy Dwór Mazowiecki, Poland","coordinates":{"latitude":52.445940439548,"longitude":20.650767103459}},"address":"ul. Gen. Wiktora Thommee 1A","full_address":"ul. Gen. Wiktora Thommee 1A, 05-102 Nowy Dwór Mazowiecki, Poland","coordinates":{"latitude":52.445940439548,"longitude":20.650767103459}},{"id":9437,"uuid":"dcc3e175-9603-11e6-9066-549f350fcb0c","name":"Warszawa, Metro Młociny","default_address":{"address":"ul. Kasprowicza 145","full_address":"ul. Kasprowicza 145, 01-949 Warszawa, Poland","coordinates":{"latitude":52.290770981763,"longitude":20.927733164349}},"address":"ul. Kasprowicza 145","full_address":"ul. Kasprowicza 145, 01-949 Warszawa, Poland","coordinates":{"latitude":52.290770981763,"longitude":20.927733164349}}],"ride_id":129003061,"trip_uid":"direct:129003061:1995:9437","has_tracker":false,"is_cancelled":false,"line_code":"L1351","direction":"Warszawa, Lotnisko Chopina"}],"departures":[{"through_the_stations":"Warszawa, Metro Młociny → Warsaw West → Warszawa, Lotnisko Chopina","datetime":{"timestamp":1624525800,"tz":"GMT+02:00"},"line_direction":"Route 1351 direction Warszawa, Lotnisko Chopina","route":[{"id":9437,"uuid":"dcc3e175-9603-11e6-9066-549f350fcb0c","name":"Warszawa, Metro Młociny","default_address":{"address":"ul. Kasprowicza 145","full_address":"ul. Kasprowicza 145, 01-949 Warszawa, Poland","coordinates":{"latitude":52.290770981763,"longitude":20.927733164349}},"address":"ul. Kasprowicza 145","full_address":"ul. Kasprowicza 145, 01-949 Warszawa, Poland","coordinates":{"latitude":52.290770981763,"longitude":20.927733164349}},{"id":10118,"uuid":"dcc454ac-9603-11e6-9066-549f350fcb0c","name":"Warsaw West","default_address":{"address":"Aleje Jerozolimskie 144","full_address":"Aleje Jerozolimskie 144, 02-303 Warszawa, Poland","coordinates":{"latitude":52.218398,"longitude":20.961755}},"address":"Aleje Jerozolimskie 144","full_address":"Aleje Jerozolimskie 144, 02-303 Warszawa, Poland","coordinates":{"latitude":52.218398,"longitude":20.961755}},{"id":9438,"uuid":"dcc3e708-9603-11e6-9066-549f350fcb0c","name":"Warszawa, Lotnisko Chopina","default_address":{"address":"ul. Żwirki i Wigury 1","full_address":"ul. Żwirki i Wigury 1, 00-906 Warszawa, Poland","coordinates":{"latitude":52.1692406,"longitude":20.9742722}},"address":"ul. Żwirki i Wigury 1","full_address":"ul. Żwirki i Wigury 1, 00-906 Warszawa, Poland","coordinates":{"latitude":52.1692406,"longitude":20.9742722}}],"ride_id":129003041,"trip_uid":"direct:129003041:9437:9438","has_tracker":true,"is_cancelled":false,"line_code":"L1351","direction":"Warszawa, Lotnisko Chopina","delay_status":"late","delay":{"timestamp":1624526343,"tz":"GMT+02:00"},"station_ride_message":"9 mins late"},{"through_the_stations":"Warszawa, Metro Młociny → Warsaw West → Warszawa, Lotnisko Chopina → Kielce, Dworzec Autobusowy → Kraków MDA → Zakopane, Dworzec Autobusowy","datetime":{"timestamp":1624531500,"tz":"GMT+02:00"},"line_direction":"Route 1221 direction Zakopane, Dworzec Autobusowy","route":[{"id":9437,"uuid":"dcc3e175-9603-11e6-9066-549f350fcb0c","name":"Warszawa, Metro Młociny","default_address":{"address":"ul. Kasprowicza 145","full_address":"ul. Kasprowicza 145, 01-949 Warszawa, Poland","coordinates":{"latitude":52.290770981763,"longitude":20.927733164349}},"address":"ul. Kasprowicza 145","full_address":"ul. Kasprowicza 145, 01-949 Warszawa, Poland","coordinates":{"latitude":52.290770981763,"longitude":20.927733164349}},{"id":10118,"uuid":"dcc454ac-9603-11e6-9066-549f350fcb0c","name":"Warsaw West","default_address":{"address":"Aleje Jerozolimskie 144","full_address":"Aleje Jerozolimskie 144, 02-303 Warszawa, Poland","coordinates":{"latitude":52.218398,"longitude":20.961755}},"address":"Aleje Jerozolimskie 144","full_address":"Aleje Jerozolimskie 144, 02-303 Warszawa, Poland","coordinates":{"latitude":52.218398,"longitude":20.961755}},{"id":9438,"uuid":"dcc3e708-9603-11e6-9066-549f350fcb0c","name":"Warszawa, Lotnisko Chopina","default_address":{"address":"ul. Żwirki i Wigury 1","full_address":"ul. Żwirki i Wigury 1, 00-906 Warszawa, Poland","coordinates":{"latitude":52.1692406,"longitude":20.9742722}},"address":"ul. Żwirki i Wigury 1","full_address":"ul. Żwirki i Wigury 1, 00-906 Warszawa, Poland","coordinates":{"latitude":52.1692406,"longitude":20.9742722}},{"id":23528,"uuid":"9563e4ca-0972-4805-a7b0-62d52b86793c","name":"Kielce, Dworzec Autobusowy","default_address":{"address":"Czarnowska 12","full_address":"Czarnowska 12, 25-504 Kielce, Poland","coordinates":{"latitude":50.875679,"longitude":20.621443}},"address":"Czarnowska 12","full_address":"Czarnowska 12, 25-504 Kielce, Poland","coordinates":{"latitude":50.875679,"longitude":20.621443}},{"id":2196,"uuid":"dcbd0e26-9603-11e6-9066-549f350fcb0c","name":"Kraków MDA","default_address":{"address":"ul. Bosacka 18","full_address":"ul. Bosacka 18, 31-505 Kraków, Poland","coordinates":{"latitude":50.067614,"longitude":19.94951}},"address":"ul. Bosacka 18","full_address":"ul. Bosacka 18, 31-505 Kraków, Poland","coordinates":{"latitude":50.067614,"longitude":19.94951}},{"id":9458,"uuid":"dcc3e987-9603-11e6-9066-549f350fcb0c","name":"Zakopane, Dworzec Autobusowy","default_address":{"address":"Chramcówki 35A","full_address":"Chramcówki 35A, 34-500 Zakopane, Poland","coordinates":{"latitude":49.301225,"longitude":19.962728}},"address":"Chramcówki 35A","full_address":"Chramcówki 35A, 34-500 Zakopane, Poland","coordinates":{"latitude":49.301225,"longitude":19.962728}}],"ride_id":140545321,"trip_uid":"direct:140545321:9437:9458","has_tracker":false,"is_cancelled":false,"line_code":"L1221","direction":"Zakopane, Dworzec Autobusowy"},{"through_the_stations":"Warszawa, Metro Młociny → Warsaw West → Warszawa, Lotnisko Chopina","datetime":{"timestamp":1624534800,"tz":"GMT+02:00"},"line_direction":"Route 1200 direction Warszawa, Lotnisko Chopina","route":[{"id":9437,"uuid":"dcc3e175-9603-11e6-9066-549f350fcb0c","name":"Warszawa, Metro Młociny","default_address":{"address":"ul. Kasprowicza 145","full_address":"ul. Kasprowicza 145, 01-949 Warszawa, Poland","coordinates":{"latitude":52.290770981763,"longitude":20.927733164349}},"address":"ul. Kasprowicza 145","full_address":"ul. Kasprowicza 145, 01-949 Warszawa, Poland","coordinates":{"latitude":52.290770981763,"longitude":20.927733164349}},{"id":10118,"uuid":"dcc454ac-9603-11e6-9066-549f350fcb0c","name":"Warsaw West","default_address":{"address":"Aleje Jerozolimskie 144","full_address":"Aleje Jerozolimskie 144, 02-303 Warszawa, Poland","coordinates":{"latitude":52.218398,"longitude":20.961755}},"address":"Aleje Jerozolimskie 144","full_address":"Aleje Jerozolimskie 144, 02-303 Warszawa, Poland","coordinates":{"latitude":52.218398,"longitude":20.961755}},{"id":9438,"uuid":"dcc3e708-9603-11e6-9066-549f350fcb0c","name":"Warszawa, Lotnisko Chopina","default_address":{"address":"ul. Żwirki i Wigury 1","full_address":"ul. Żwirki i Wigury 1, 00-906 Warszawa, Poland","coordinates":{"latitude":52.1692406,"longitude":20.9742722}},"address":"ul. Żwirki i Wigury 1","full_address":"ul. Żwirki i Wigury 1, 00-906 Warszawa, Poland","coordinates":{"latitude":52.1692406,"longitude":20.9742722}}],"ride_id":131439021,"trip_uid":"direct:131439021:9437:9438","has_tracker":true,"is_cancelled":false,"line_code":"L1200","direction":"Warszawa, Lotnisko Chopina","delay_status":"late","delay":{"timestamp":1624535487,"tz":"GMT+02:00"},"station_ride_message":"11 mins late"},{"through_the_stations":"Warszawa, Metro Młociny → Nowy Dwór Mazowiecki, MPL Warszawa - Modlin → Ostróda, Grunwaldzka → Elbląg, Dworzec Autobusowy → Gdańsk, Dworzec Autobusowy → Gdańsk, Hala Olivia 1840 i 1841 → Sopot, PKP Niepodległości 01 i 02 → Gdynia, Dworzec Autobusowy","datetime":{"timestamp":1624543800,"tz":"GMT+02:00"},"line_direction":"Route 1200 direction Gdynia, Dworzec Autobusowy","route":[{"id":9437,"uuid":"dcc3e175-9603-11e6-9066-549f350fcb0c","name":"Warszawa, Metro Młociny","default_address":{"address":"ul. Kasprowicza 145","full_address":"ul. Kasprowicza 145, 01-949 Warszawa, Poland","coordinates":{"latitude":52.290770981763,"longitude":20.927733164349}},"address":"ul. Kasprowicza 145","full_address":"ul. Kasprowicza 145, 01-949 Warszawa, Poland","coordinates":{"latitude":52.290770981763,"longitude":20.927733164349}},{"id":28718,"uuid":"bbc81f9a-abe7-4fae-aa84-b9d28c5669a3","name":"Nowy Dwór Mazowiecki, MPL Warszawa - Modlin","default_address":{"address":"ul. Gen. Wiktora Thommee 1A","full_address":"ul. Gen. Wiktora Thommee 1A, 05-102 Nowy Dwór Mazowiecki, Poland","coordinates":{"latitude":52.445940439548,"longitude":20.650767103459}},"address":"ul. Gen. Wiktora Thommee 1A","full_address":"ul. Gen. Wiktora Thommee 1A, 05-102 Nowy Dwór Mazowiecki, Poland","coordinates":{"latitude":52.445940439548,"longitude":20.650767103459}},{"id":23458,"uuid":"fa5251f2-fc15-4d6d-8917-2e30a2269cb0","name":"Ostróda, Grunwaldzka","default_address":{"address":"ul. Grunwaldzka","full_address":"ul. Grunwaldzka, 14-100 Ostróda, Poland","coordinates":{"latitude":53.692407,"longitude":19.978268}},"address":"ul. Grunwaldzka","full_address":"ul. Grunwaldzka, 14-100 Ostróda, Poland","coordinates":{"latitude":53.692407,"longitude":19.978268}},{"id":36281,"uuid":"9a45366a-9d4c-4fbb-8bb2-db9d947db03b","name":"Elbląg, Dworzec Autobusowy","default_address":{"address":"plac Dworcowy 4, 82-300 Elbląg","full_address":"plac Dworcowy 4, 82-300 Elbląg, 82-300 Elbląg, Poland","coordinates":{"latitude":54.152175,"longitude":19.414913}},"address":"plac Dworcowy 4, 82-300 Elbląg","full_address":"plac Dworcowy 4, 82-300 Elbląg, 82-300 Elbląg, Poland","coordinates":{"latitude":54.152175,"longitude":19.414913}},{"id":2035,"uuid":"dcbcd754-9603-11e6-9066-549f350fcb0c","name":"Gdańsk, Dworzec Autobusowy","default_address":{"address":"ul. 3 maja 12","full_address":"ul. 3 maja 12, 80-802 Gdansk, Poland","coordinates":{"latitude":54.356151824566,"longitude":18.642735821763}},"address":"ul. 3 maja 12","full_address":"ul. 3 maja 12, 80-802 Gdansk, Poland","coordinates":{"latitude":54.356151824566,"longitude":18.642735821763}},{"id":29988,"uuid":"5d60df25-b809-4b41-a49b-ea6aaaefebd1","name":"Gdańsk, Hala Olivia 1840 i 1841","default_address":{"address":"Al. Grunwaldzka","full_address":"Al. Grunwaldzka, 80-309 Gdańsk, Poland","coordinates":{"latitude":54.40129044696,"longitude":18.573877078689}},"address":"Al. Grunwaldzka","full_address":"Al. Grunwaldzka, 80-309 Gdańsk, Poland","coordinates":{"latitude":54.40129044696,"longitude":18.573877078689}},{"id":29998,"uuid":"db8dec0b-cc98-4f2e-b602-e3365c25852f","name":"Sopot, PKP Niepodległości 01 i 02","default_address":{"address":"Aleja Niepodległości 748","full_address":"Aleja Niepodległości 748, 81-840 Sopot, Poland","coordinates":{"latitude":54.438586985448,"longitude":18.560716207183}},"address":"Aleja Niepodległości 748","full_address":"Aleja Niepodległości 748, 81-840 Sopot, Poland","coordinates":{"latitude":54.438586985448,"longitude":18.560716207183}},{"id":25618,"uuid":"0cdde44e-e945-4e63-83fe-13e09a57691e","name":"Gdynia, Dworzec Autobusowy","default_address":{"address":"Plac Konstytucji 1","full_address":"Plac Konstytucji 1, 81-354 Gdynia, Poland","coordinates":{"latitude":54.521992,"longitude":18.529541}},"address":"Plac Konstytucji 1","full_address":"Plac Konstytucji 1, 81-354 Gdynia, Poland","coordinates":{"latitude":54.521992,"longitude":18.529541}}],"ride_id":131439111,"trip_uid":"direct:131439111:9437:25618","has_tracker":false,"is_cancelled":false,"line_code":"L1200","direction":"Gdynia, Dworzec Autobusowy"},{"through_the_stations":"Warszawa, Metro Młociny → Nowy Dwór Mazowiecki, MPL Warszawa - Modlin → Płock, Dworzec Autobusowy → Toruń, Dw. Autobusowy → Toruń, ul. Broniewskiego → Bydgoszcz, Dworzec Autobusowy","datetime":{"timestamp":1624548600,"tz":"GMT+02:00"},"line_direction":"Route 1351 direction Bydgoszcz, Dworzec Autobusowy","route":[{"id":9437,"uuid":"dcc3e175-9603-11e6-9066-549f350fcb0c","name":"Warszawa, Metro Młociny","default_address":{"address":"ul. Kasprowicza 145","full_address":"ul. Kasprowicza 145, 01-949 Warszawa, Poland","coordinates":{"latitude":52.290770981763,"longitude":20.927733164349}},"address":"ul. Kasprowicza 145","full_address":"ul. Kasprowicza 145, 01-949 Warszawa, Poland","coordinates":{"latitude":52.290770981763,"longitude":20.927733164349}},{"id":28718,"uuid":"bbc81f9a-abe7-4fae-aa84-b9d28c5669a3","name":"Nowy Dwór Mazowiecki, MPL Warszawa - Modlin","default_address":{"address":"ul. Gen. Wiktora Thommee 1A","full_address":"ul. Gen. Wiktora Thommee 1A, 05-102 Nowy Dwór Mazowiecki, Poland","coordinates":{"latitude":52.445940439548,"longitude":20.650767103459}},"address":"ul. Gen. Wiktora Thommee 1A","full_address":"ul. Gen. Wiktora Thommee 1A, 05-102 Nowy Dwór Mazowiecki, Poland","coordinates":{"latitude":52.445940439548,"longitude":20.650767103459}},{"id":23468,"uuid":"0d69483a-e42b-4723-bbbc-b1f8c6f5259c","name":"Płock, Dworzec Autobusowy","default_address":{"address":"ul. Dworcowa 46","full_address":"ul. Dworcowa 46, 09-400 Płock, Poland","coordinates":{"latitude":52.552346737724,"longitude":19.711879134918}},"address":"ul. Dworcowa 46","full_address":"ul. Dworcowa 46, 09-400 Płock, Poland","coordinates":{"latitude":52.552346737724,"longitude":19.711879134918}},{"id":28328,"uuid":"8819e9fd-847b-4997-9eed-bca0a3776dae","name":"Toruń, Dw. Autobusowy","default_address":{"address":"ul. Dąbrowskiego 8/24","full_address":"ul. Dąbrowskiego 8/24, 87-100 Toruń, Poland","coordinates":{"latitude":53.01568762257357,"longitude":18.607644917519526}},"address":"ul. Dąbrowskiego 8/24","full_address":"ul. Dąbrowskiego 8/24, 87-100 Toruń, Poland","coordinates":{"latitude":53.01568762257357,"longitude":18.607644917519526}},{"id":28338,"uuid":"5404247b-9239-4c05-b4e8-479383d7c584","name":"Toruń, ul. Broniewskiego","default_address":{"address":"ul. Broniewskiego","full_address":"ul. Broniewskiego, 87-100 Toruń, Poland","coordinates":{"latitude":53.013736007974,"longitude":18.57156611515}},"address":"ul. Broniewskiego","full_address":"ul. Broniewskiego, 87-100 Toruń, Poland","coordinates":{"latitude":53.013736007974,"longitude":18.57156611515}},{"id":1995,"uuid":"dcbccbe5-9603-11e6-9066-549f350fcb0c","name":"Bydgoszcz, Dworzec Autobusowy","default_address":{"address":"Jagiellonska 58","full_address":"Jagiellonska 58, 85-001 Bydgoszcz, Poland","coordinates":{"latitude":53.1220205,"longitude":18.017502}},"address":"Jagiellonska 58","full_address":"Jagiellonska 58, 85-001 Bydgoszcz, Poland","coordinates":{"latitude":53.1220205,"longitude":18.017502}}],"ride_id":129003051,"trip_uid":"direct:129003051:9437:1995","has_tracker":false,"is_cancelled":false,"line_code":"L1351","direction":"Bydgoszcz, Dworzec Autobusowy"},{"through_the_stations":"Warszawa, Metro Młociny → Warsaw West → Warszawa, Lotnisko Chopina","datetime":{"timestamp":1624550700,"tz":"GMT+02:00"},"line_direction":"Route 1352 direction Warszawa, Lotnisko Chopina","route":[{"id":9437,"uuid":"dcc3e175-9603-11e6-9066-549f350fcb0c","name":"Warszawa, Metro Młociny","default_address":{"address":"ul. Kasprowicza 145","full_address":"ul. Kasprowicza 145, 01-949 Warszawa, Poland","coordinates":{"latitude":52.290770981763,"longitude":20.927733164349}},"address":"ul. Kasprowicza 145","full_address":"ul. Kasprowicza 145, 01-949 Warszawa, Poland","coordinates":{"latitude":52.290770981763,"longitude":20.927733164349}},{"id":10118,"uuid":"dcc454ac-9603-11e6-9066-549f350fcb0c","name":"Warsaw West","default_address":{"address":"Aleje Jerozolimskie 144","full_address":"Aleje Jerozolimskie 144, 02-303 Warszawa, Poland","coordinates":{"latitude":52.218398,"longitude":20.961755}},"address":"Aleje Jerozolimskie 144","full_address":"Aleje Jerozolimskie 144, 02-303 Warszawa, Poland","coordinates":{"latitude":52.218398,"longitude":20.961755}},{"id":9438,"uuid":"dcc3e708-9603-11e6-9066-549f350fcb0c","name":"Warszawa, Lotnisko Chopina","default_address":{"address":"ul. Żwirki i Wigury 1","full_address":"ul. Żwirki i Wigury 1, 00-906 Warszawa, Poland","coordinates":{"latitude":52.1692406,"longitude":20.9742722}},"address":"ul. Żwirki i Wigury 1","full_address":"ul. Żwirki i Wigury 1, 00-906 Warszawa, Poland","coordinates":{"latitude":52.1692406,"longitude":20.9742722}}],"ride_id":126816311,"trip_uid":"direct:126816311:9437:9438","has_tracker":false,"is_cancelled":false,"line_code":"L1352","direction":"Warszawa, Lotnisko Chopina"},{"through_the_stations":"Warszawa, Metro Młociny → Warsaw West → Warszawa, Lotnisko Chopina","datetime":{"timestamp":1624556700,"tz":"GMT+02:00"},"line_direction":"Route 1200 direction Warszawa, Lotnisko Chopina","route":[{"id":9437,"uuid":"dcc3e175-9603-11e6-9066-549f350fcb0c","name":"Warszawa, Metro Młociny","default_address":{"address":"ul. Kasprowicza 145","full_address":"ul. Kasprowicza 145, 01-949 Warszawa, Poland","coordinates":{"latitude":52.290770981763,"longitude":20.927733164349}},"address":"ul. Kasprowicza 145","full_address":"ul. Kasprowicza 145, 01-949 Warszawa, Poland","coordinates":{"latitude":52.290770981763,"longitude":20.927733164349}},{"id":10118,"uuid":"dcc454ac-9603-11e6-9066-549f350fcb0c","name":"Warsaw West","default_address":{"address":"Aleje Jerozolimskie 144","full_address":"Aleje Jerozolimskie 144, 02-303 Warszawa, Poland","coordinates":{"latitude":52.218398,"longitude":20.961755}},"address":"Aleje Jerozolimskie 144","full_address":"Aleje Jerozolimskie 144, 02-303 Warszawa, Poland","coordinates":{"latitude":52.218398,"longitude":20.961755}},{"id":9438,"uuid":"dcc3e708-9603-11e6-9066-549f350fcb0c","name":"Warszawa, Lotnisko Chopina","default_address":{"address":"ul. Żwirki i Wigury 1","full_address":"ul. Żwirki i Wigury 1, 00-906 Warszawa, Poland","coordinates":{"latitude":52.1692406,"longitude":20.9742722}},"address":"ul. Żwirki i Wigury 1","full_address":"ul. Żwirki i Wigury 1, 00-906 Warszawa, Poland","coordinates":{"latitude":52.1692406,"longitude":20.9742722}}],"ride_id":131439081,"trip_uid":"direct:131439081:9437:9438","has_tracker":false,"is_cancelled":false,"line_code":"L1200","direction":"Warszawa, Lotnisko Chopina"},{"through_the_stations":"Warszawa, Metro Młociny → Nowy Dwór Mazowiecki, MPL Warszawa - Modlin → Płock, Dworzec Autobusowy → Włocławek, Dworzec Autobusowy → Grudziądz, Włodka 01 i 02 → Gdańsk, Dworzec Autobusowy → Gdańsk, Hala Olivia 1840 i 1841 → Sopot, PKP Niepodległości 01 i 02→ Gdynia, Dworzec Autobusowy","datetime":{"timestamp":1624573500,"tz":"GMT+02:00"},"line_direction":"Route N1210 direction Gdynia, Dworzec Autobusowy","route":[{"id":9437,"uuid":"dcc3e175-9603-11e6-9066-549f350fcb0c","name":"Warszawa, Metro Młociny","default_address":{"address":"ul. Kasprowicza 145","full_address":"ul. Kasprowicza 145, 01-949 Warszawa, Poland","coordinates":{"latitude":52.290770981763,"longitude":20.927733164349}},"address":"ul. Kasprowicza 145","full_address":"ul. Kasprowicza 145, 01-949 Warszawa, Poland","coordinates":{"latitude":52.290770981763,"longitude":20.927733164349}},{"id":28718,"uuid":"bbc81f9a-abe7-4fae-aa84-b9d28c5669a3","name":"Nowy Dwór Mazowiecki, MPL Warszawa - Modlin","default_address":{"address":"ul. Gen. Wiktora Thommee 1A","full_address":"ul. Gen. Wiktora Thommee 1A, 05-102 Nowy Dwór Mazowiecki, Poland","coordinates":{"latitude":52.445940439548,"longitude":20.650767103459}},"address":"ul. Gen. Wiktora Thommee 1A","full_address":"ul. Gen. Wiktora Thommee 1A, 05-102 Nowy Dwór Mazowiecki, Poland","coordinates":{"latitude":52.445940439548,"longitude":20.650767103459}},{"id":23468,"uuid":"0d69483a-e42b-4723-bbbc-b1f8c6f5259c","name":"Płock, Dworzec Autobusowy","default_address":{"address":"ul. Dworcowa 46","full_address":"ul. Dworcowa 46, 09-400 Płock, Poland","coordinates":{"latitude":52.552346737724,"longitude":19.711879134918}},"address":"ul. Dworcowa 46","full_address":"ul. Dworcowa 46, 09-400 Płock, Poland","coordinates":{"latitude":52.552346737724,"longitude":19.711879134918}},{"id":23518,"uuid":"e23391c7-8937-4b89-bb3b-ec4ed085709c","name":"Włocławek, Dworzec Autobusowy","default_address":{"address":"ul. Stefana Okrzei 65","full_address":"ul. Stefana Okrzei 65, 87-800 Włocławek, Poland","coordinates":{"latitude":52.653635,"longitude":19.059291}},"address":"ul. Węglowa 13","full_address":"ul. Węglowa 13, 87-810 Włocławek, Poland","coordinates":{"latitude":52.651272,"longitude":19.059249}},{"id":29978,"uuid":"e3aa3792-51e9-49e0-8872-fdf824634e8d","name":"Grudziądz, Włodka 01 i 02","default_address":{"address":"ul. Włodka 7","full_address":"ul. Włodka 7, 86-300 Grudziadz, Poland","coordinates":{"latitude":53.484427176611,"longitude":18.750798957514}},"address":"ul. Włodka 7","full_address":"ul. Włodka 7, 86-300 Grudziadz, Poland","coordinates":{"latitude":53.484427176611,"longitude":18.750798957514}},{"id":2035,"uuid":"dcbcd754-9603-11e6-9066-549f350fcb0c","name":"Gdańsk, Dworzec Autobusowy","default_address":{"address":"ul. 3 maja 12","full_address":"ul. 3 maja 12, 80-802 Gdansk, Poland","coordinates":{"latitude":54.356151824566,"longitude":18.642735821763}},"address":"ul. 3 maja 12","full_address":"ul. 3 maja 12, 80-802 Gdansk, Poland","coordinates":{"latitude":54.356151824566,"longitude":18.642735821763}},{"id":29988,"uuid":"5d60df25-b809-4b41-a49b-ea6aaaefebd1","name":"Gdańsk, Hala Olivia 1840 i 1841","default_address":{"address":"Al. Grunwaldzka","full_address":"Al. Grunwaldzka, 80-309 Gdańsk, Poland","coordinates":{"latitude":54.40129044696,"longitude":18.573877078689}},"address":"Al. Grunwaldzka","full_address":"Al. Grunwaldzka, 80-309 Gdańsk, Poland","coordinates":{"latitude":54.40129044696,"longitude":18.573877078689}},{"id":29998,"uuid":"db8dec0b-cc98-4f2e-b602-e3365c25852f","name":"Sopot, PKP Niepodległości 01 i 02","default_address":{"address":"Aleja Niepodległości 748","full_address":"Aleja Niepodległości 748, 81-840 Sopot, Poland","coordinates":{"latitude":54.438586985448,"longitude":18.560716207183}},"address":"Aleja Niepodległości 748","full_address":"Aleja Niepodległości 748, 81-840 Sopot, Poland","coordinates":{"latitude":54.438586985448,"longitude":18.560716207183}},{"id":25618,"uuid":"0cdde44e-e945-4e63-83fe-13e09a57691e","name":"Gdynia, Dworzec Autobusowy","default_address":{"address":"Plac Konstytucji 1","full_address":"Plac Konstytucji 1, 81-354 Gdynia, Poland","coordinates":{"latitude":54.521992,"longitude":18.529541}},"address":"Plac Konstytucji 1","full_address":"Plac Konstytucji 1, 81-354 Gdynia, Poland","coordinates":{"latitude":54.521992,"longitude":18.529541}}],"ride_id":131517281,"trip_uid":"direct:131517281:9437:25618","has_tracker":false,"is_cancelled":false,"line_code":"N1210","direction":"Gdynia, Dworzec Autobusowy"},{"through_the_stations":"Warszawa, Metro Młociny → Warsaw West → Warszawa, Lotnisko Chopina","datetime":{"timestamp":1624592400,"tz":"GMT+02:00"},"line_direction":"Route N1210 direction Warszawa, Lotnisko Chopina","route":[{"id":9437,"uuid":"dcc3e175-9603-11e6-9066-549f350fcb0c","name":"Warszawa, Metro Młociny","default_address":{"address":"ul. Kasprowicza 145","full_address":"ul. Kasprowicza 145, 01-949 Warszawa, Poland","coordinates":{"latitude":52.290770981763,"longitude":20.927733164349}},"address":"ul. Kasprowicza 145","full_address":"ul. Kasprowicza 145, 01-949 Warszawa, Poland","coordinates":{"latitude":52.290770981763,"longitude":20.927733164349}},{"id":10118,"uuid":"dcc454ac-9603-11e6-9066-549f350fcb0c","name":"Warsaw West","default_address":{"address":"Aleje Jerozolimskie 144","full_address":"Aleje Jerozolimskie 144, 02-303 Warszawa, Poland","coordinates":{"latitude":52.218398,"longitude":20.961755}},"address":"Aleje Jerozolimskie 144","full_address":"Aleje Jerozolimskie 144, 02-303 Warszawa, Poland","coordinates":{"latitude":52.218398,"longitude":20.961755}},{"id":9438,"uuid":"dcc3e708-9603-11e6-9066-549f350fcb0c","name":"Warszawa, Lotnisko Chopina","default_address":{"address":"ul. Żwirki i Wigury 1","full_address":"ul. Żwirki i Wigury 1, 00-906 Warszawa, Poland","coordinates":{"latitude":52.1692406,"longitude":20.9742722}},"address":"ul. Żwirki i Wigury 1","full_address":"ul. Żwirki i Wigury 1, 00-906 Warszawa, Poland","coordinates":{"latitude":52.1692406,"longitude":20.9742722}}],"ride_id":131517251,"trip_uid":"direct:131517251:9437:9438","has_tracker":false,"is_cancelled":false,"line_code":"N1210","direction":"Warszawa, Lotnisko Chopina"},{"through_the_stations":"Warszawa, Metro Młociny → Warszawa, Lotnisko Chopina → Radom Dworzec Autobusowy → Kielce, Dworzec Autobusowy → Kraków MDA → Nowy Targ, Dw. Autobusowy → Zakopane, Parking E.Leclerc","datetime":{"timestamp":1624597200,"tz":"GMT+02:00"},"line_direction":"Route 1261 direction Zakopane, Parking E.Leclerc","route":[{"id":9437,"uuid":"dcc3e175-9603-11e6-9066-549f350fcb0c","name":"Warszawa, Metro Młociny","default_address":{"address":"ul. Kasprowicza 145","full_address":"ul. Kasprowicza 145, 01-949 Warszawa, Poland","coordinates":{"latitude":52.290770981763,"longitude":20.927733164349}},"address":"ul. Kasprowicza 145","full_address":"ul. Kasprowicza 145, 01-949 Warszawa, Poland","coordinates":{"latitude":52.290770981763,"longitude":20.927733164349}},{"id":9438,"uuid":"dcc3e708-9603-11e6-9066-549f350fcb0c","name":"Warszawa, Lotnisko Chopina","default_address":{"address":"ul. Żwirki i Wigury 1","full_address":"ul. Żwirki i Wigury 1, 00-906 Warszawa, Poland","coordinates":{"latitude":52.1692406,"longitude":20.9742722}},"address":"ul. Żwirki i Wigury 1","full_address":"ul. Żwirki i Wigury 1, 00-906 Warszawa, Poland","coordinates":{"latitude":52.1692406,"longitude":20.9742722}},{"id":23498,"uuid":"6caf963e-0be6-4925-abab-6a5931666154","name":"Radom Dworzec Autobusowy","default_address":{"address":"ul. B. Prażmowskiego 8","full_address":"ul. B. Prażmowskiego 8, 26-600 Radom, Poland","coordinates":{"latitude":51.392456,"longitude":21.15741}},"address":"ul. B. Prażmowskiego 8","full_address":"ul. B. Prażmowskiego 8, 26-600 Radom, Poland","coordinates":{"latitude":51.392456,"longitude":21.15741}},{"id":23528,"uuid":"9563e4ca-0972-4805-a7b0-62d52b86793c","name":"Kielce, Dworzec Autobusowy","default_address":{"address":"Czarnowska 12","full_address":"Czarnowska 12, 25-504 Kielce, Poland","coordinates":{"latitude":50.875679,"longitude":20.621443}},"address":"Czarnowska 12","full_address":"Czarnowska 12, 25-504 Kielce, Poland","coordinates":{"latitude":50.875679,"longitude":20.621443}},{"id":2196,"uuid":"dcbd0e26-9603-11e6-9066-549f350fcb0c","name":"Kraków MDA","default_address":{"address":"ul. Bosacka 18","full_address":"ul. Bosacka 18, 31-505 Kraków, Poland","coordinates":{"latitude":50.067614,"longitude":19.94951}},"address":"ul. Bosacka 18","full_address":"ul. Bosacka 18, 31-505 Kraków, Poland","coordinates":{"latitude":50.067614,"longitude":19.94951}},{"id":29358,"uuid":"9654da64-7fdf-493e-84ee-65cbd9a688b1","name":"Nowy Targ, Dw. Autobusowy","default_address":{"address":"Aleja Tysiąclecia 21","full_address":"Aleja Tysiąclecia 21, 34-400 Nowy Targ, Poland","coordinates":{"latitude":49.478054,"longitude":20.023001}},"address":"Aleja Tysiąclecia 21","full_address":"Aleja Tysiąclecia 21, 34-400 Nowy Targ, Poland","coordinates":{"latitude":49.478054,"longitude":20.023001}},{"id":36471,"uuid":"8a121cd9-7761-435e-a6d1-808ac5395f4c","name":"Zakopane, Parking E.Leclerc","default_address":{"address":"Kościuszki 25","full_address":"Kościuszki 25, 34-500 Zakopane, Poland","coordinates":{"latitude":49.300188806271,"longitude":19.961124842121}},"address":"Kościuszki 25","full_address":"Kościuszki 25, 34-500 Zakopane, Poland","coordinates":{"latitude":49.300188806271,"longitude":19.961124842121}}],"ride_id":132641521,"trip_uid":"direct:132641521:9437:36471","has_tracker":false,"is_cancelled":false,"line_code":"L1261","direction":"Zakopane, Parking E.Leclerc"}],"message":"Peron 1."},"station":{"id":9437,"uuid":"dcc3e175-9603-11e6-9066-549f350fcb0c","name":"Warszawa, Metro Młociny","default_address":{"address":"ul. Kasprowicza 145","full_address":"ul. Kasprowicza 145, 01-949 Warszawa, Polska","coordinates":{"latitude":52.290770981763,"longitude":20.927733164349}},"address":"ul. Kasprowicza 145","full_address":"ul. Kasprowicza 145, 01-949 Warszawa, Polska","coordinates":{"latitude":52.290770981763,"longitude":20.927733164349}}}
